[
 {
  "canonical": "Assiniboine Park Zoo",
  "lineage_id": 76,
  "en": "Assiniboine Park Zoo",
  "zh": "阿西尼博因公園動物園",
  "country": "Canada",
  "location_ja": "曼尼托巴省溫尼伯",
  "location_en": "Winnipeg, Manitoba, Canada",
  "lat": 49.8683326,
  "lng": -97.3106535,
  "map": "https://goo.gl/maps/yA6s5Fk3SZx",
  "website": "http://www.assiniboineparkzoo.ca/",
  "logo": null,
  "aliases": []
 },
 {
  "canonical": "Batu Secret Zoo",
  "lineage_id": 316,
  "en": "Batu Secret Zoo",
  "zh": "巴圖秘密動物園",
  "country": "Indonesia",
  "location_ja": "東爪哇省Batu市",
  "location_en": "East Java, Indonesia",
  "lat": -7.8893819,
  "lng": 112.5282242,
  "map": "https://maps.app.goo.gl/sMz4KzPSUVcR67hTA",
  "website": "https://batusecretzoo.com/",
  "logo": null,
  "aliases": []
 },
 {
  "canonical": "Buin Zoo",
  "lineage_id": 147,
  "en": "Buin Zoo",
  "zh": "布因動物園",
  "country": "Chile",
  "location_ja": "チリレヒオン・メトロポリターナ州ブイン",
  "location_en": "Buin, Región Metropolitana, Chile",
  "lat": -33.710983,
  "lng": -70.7264079,
  "map": "https://goo.gl/maps/ha3XcnX29eA2",
  "website": "https://www.buinzoo.cl/",
  "logo": null,
  "aliases": []
 },
 {
  "canonical": "Calgary Zoo",
  "lineage_id": 51,
  "en": "Calgary Zoo",
  "zh": "卡加利動物園",
  "country": "Canada",
  "location_ja": "亞伯達省卡加利",
  "location_en": "Calgary, Alberta, Canada",
  "lat": 51.0459038,
  "lng": -114.0258625,
  "map": "https://goo.gl/maps/gXaumYRHucJ2",
  "website": "https://www.calgaryzoo.com/",
  "logo": null,
  "aliases": []
 },
 {
  "canonical": "Chilean National Zoo",
  "lineage_id": 56,
  "en": "Chilean National Zoo",
  "zh": "智利國家動物園",
  "country": "Chile",
  "location_ja": "聖地牙哥",
  "location_en": "Santiago, Chile",
  "lat": -33.4298427,
  "lng": -70.704131,
  "map": "https://goo.gl/maps/CtRXBeoUgYF2",
  "website": "http://www.parquemet.cl/",
  "logo": null,
  "aliases": []
 },
 {
  "canonical": "Chongqing Zoo",
  "lineage_id": 5,
  "en": "Chongqing Zoo",
  "zh": null,
  "country": "China",
  "location_ja": "JiulongpoQu,China",
  "location_en": "Jiulongpo Qu, China",
  "lat": 29.5035617,
  "lng": 106.5037493,
  "map": "https://goo.gl/maps/rsck5UV8B552",
  "website": "http://www.cqzoo.com",
  "logo": null,
  "aliases": []
 },
 {
  "canonical": "Cincinnati Zoo and Botanical Garden",
  "lineage_id": 65,
  "en": "Cincinnati Zoo and Botanical Garden",
  "zh": "辛辛那提動物園與植物園",
  "country": "USA",
  "location_ja": "俄亥俄州辛辛那提",
  "location_en": "Cincinnati, OH, USA",
  "lat": 39.1445771,
  "lng": -84.5108057,
  "map": "https://goo.gl/maps/N3XtwSMHnx22",
  "website": "http://cincinnatizoo.org/",
  "logo": null,
  "aliases": []
 },
 {
  "canonical": "Columbus Zoo and Aquarium",
  "lineage_id": 43,
  "en": "Columbus Zoo and Aquarium",
  "zh": "哥倫布動物園與水族館",
  "country": "USA",
  "location_ja": "俄亥俄州哥倫布",
  "location_en": "Powell, Liberty Township, Delaware County, Ohio, USA",
  "lat": 40.156083,
  "lng": -83.1204929,
  "map": "https://goo.gl/maps/CWVYiPe7c3S2",
  "website": "https://www.columbuszoo.org/",
  "logo": null,
  "aliases": []
 },
 {
  "canonical": "Edmonton Valley Zoo",
  "lineage_id": 82,
  "en": "Edmonton Valley Zoo",
  "zh": "艾德蒙頓谷動物園",
  "country": "Canada",
  "location_ja": "亞伯達省艾德蒙頓",
  "location_en": "Edmonton, Alberta, Canada",
  "lat": 53.5130356,
  "lng": -113.5674656,
  "map": "https://goo.gl/maps/34HUM7tYy542",
  "website": "https://www.edmonton.ca/attractions_events/edmonton-valley-zoo.aspx",
  "logo": null,
  "aliases": []
 },
 {
  "canonical": "Everland Zoological Gardens",
  "lineage_id": 62,
  "en": "Everland Zoological Gardens",
  "zh": "愛寶樂園動物園",
  "country": "South Korea",
  "location_ja": "京畿道龍仁市",
  "location_en": "Yongin City, Gyeonggi Province, South Korea",
  "lat": 37.2939146,
  "lng": 127.2003777,
  "map": "https://goo.gl/maps/e4tvYMRSY7z",
  "website": "http://www.everland.com/",
  "logo": null,
  "aliases": []
 },
 {
  "canonical": "Henry Vilas Zoo",
  "lineage_id": 77,
  "en": "Henry Vilas Zoo",
  "zh": "亨利維拉斯動物園",
  "country": "USA",
  "location_ja": "威斯康辛州麥迪遜",
  "location_en": "Madison, Wisconsin, USA",
  "lat": 43.0606143,
  "lng": -89.4122236,
  "map": "https://goo.gl/maps/eNq2cY1kKNu",
  "website": "http://www.vilaszoo.org/",
  "logo": null,
  "aliases": []
 },
 {
  "canonical": "Lincoln Children's Zoo",
  "lineage_id": 80,
  "en": "Lincoln Children's Zoo",
  "zh": "林肯兒童動物園",
  "country": "USA",
  "location_ja": "內布拉斯加州林肯",
  "location_en": "Lincoln, NE, USA",
  "lat": 40.8005726,
  "lng": -96.6795449,
  "map": "https://goo.gl/maps/5kHk6aS6A2R2",
  "website": "https://www.lincolnzoo.org/",
  "logo": null,
  "aliases": []
 },
 {
  "canonical": "Mogo Zoo",
  "lineage_id": 210,
  "en": "Mogo Zoo",
  "zh": "莫戈動物園",
  "country": "Australia",
  "location_ja": "新南威爾斯",
  "location_en": "Mogo, New South Wales, Australia",
  "lat": -35.7953737,
  "lng": 150.1571899,
  "map": "https://goo.gl/maps/73JeSnC4UNabbXTT7",
  "website": "https://mogozoo.com.au/",
  "logo": null,
  "aliases": []
 },
 {
  "canonical": "Northeastern Wisconsin Zoo",
  "lineage_id": 44,
  "en": "Northeastern Wisconsin Zoo",
  "zh": "威斯康辛東北動物園",
  "country": "USA",
  "location_ja": "威斯康辛州綠灣",
  "location_en": "Green Bay, Wisconsin, USA",
  "lat": 44.6603441,
  "lng": -88.0915213,
  "map": "https://goo.gl/maps/Wi6pMXofB6w",
  "website": "https://newzoo.org",
  "logo": null,
  "aliases": []
 },
 {
  "canonical": "Perth Zoo",
  "lineage_id": 217,
  "en": "Perth Zoo",
  "zh": "伯斯動物園",
  "country": "Australia",
  "location_ja": "珀斯",
  "location_en": "Perth, Australia",
  "lat": -31.9755308,
  "lng": 115.8500678,
  "map": "https://g.page/perth-zoo-south-perth?share",
  "website": "https://perthzoo.wa.gov.au/",
  "logo": null,
  "aliases": []
 },
 {
  "canonical": "Pittsburgh Zoo and PPG Aquarium",
  "lineage_id": 91,
  "en": "Pittsburgh Zoo and PPG Aquarium",
  "zh": "匹茲堡動物園與水族館",
  "country": "USA",
  "location_ja": "賓州匹茲堡",
  "location_en": "Pittsburgh, Pennsylvania, USA",
  "lat": 40.4878388,
  "lng": -79.9294974,
  "map": "https://goo.gl/maps/wKD5UXtTWh42",
  "website": "https://www.pittsburghzoo.org/",
  "logo": null,
  "aliases": []
 },
 {
  "canonical": "Red River Zoo",
  "lineage_id": 83,
  "en": "Red River Zoo",
  "zh": "紅河動物園",
  "country": "USA",
  "location_ja": "北達科他州法戈",
  "location_en": "Fargo, North Dakota, USA",
  "lat": 46.8457505,
  "lng": -96.8582848,
  "map": "https://goo.gl/maps/iDn5ZuFrH4U2",
  "website": "https://redriverzoo.org/",
  "logo": null,
  "aliases": []
 },
 {
  "canonical": "Ross Park Zoo",
  "lineage_id": 89,
  "en": "Ross Park Zoo",
  "zh": "羅斯公園動物園",
  "country": "USA",
  "location_ja": "紐約州賓漢頓",
  "location_en": "Binghamton, NY, USA",
  "lat": 42.0875777,
  "lng": -75.9133327,
  "map": "https://goo.gl/maps/BoeUeTysCJy",
  "website": "https://rossparkzoo.org/",
  "logo": null,
  "aliases": []
 },
 {
  "canonical": "Rotterdam Zoo",
  "lineage_id": 72,
  "en": "Rotterdam Zoo",
  "zh": "鹿特丹動物園",
  "country": "Netherlands",
  "location_ja": "鹿特丹",
  "location_en": "Rotterdam, Netherlands",
  "lat": 51.9281613,
  "lng": 4.4418373,
  "map": "https://goo.gl/maps/yFbttoQZrP82",
  "website": "https://www.diergaardeblijdorp.nl/",
  "logo": null,
  "aliases": []
 },
 {
  "canonical": "いしかわ動物園",
  "lineage_id": 31,
  "en": "Ishikawa Zoo",
  "zh": null,
  "country": "Japan",
  "location_ja": "能美市石川県",
  "location_en": "Nomi, Ishikawa, Japan",
  "lat": 36.4337633,
  "lng": 136.5435233,
  "map": "https://goo.gl/maps/45d7ga53bG62",
  "website": "http://www.ishikawazoo.jp/",
  "logo": null,
  "aliases": [
   "Ishikawa Zoo",
   "石川動物園"
  ]
 },
 {
  "canonical": "とくしま動物園",
  "lineage_id": 35,
  "en": "Tokushima Zoo",
  "zh": null,
  "country": "Japan",
  "location_ja": "徳島市徳島県",
  "location_en": "Tokushima City, Tokushima Prefecture, Japan",
  "lat": 34.0137524,
  "lng": 134.5191863,
  "map": "https://goo.gl/maps/d7LpHftgkFq",
  "website": "http://www.city.tokushima.tokushima.jp/zoo/",
  "logo": null,
  "aliases": [
   "Tokushima Zoo"
  ]
 },
 {
  "canonical": "ひらかたパーク",
  "lineage_id": 52,
  "en": "Hirakata Park (Wonder Garden)",
  "zh": null,
  "country": "Japan",
  "location_ja": "枚方市大阪府",
  "location_en": "Hirakata, Osaka Prefecture, Japan",
  "lat": 34.8082596,
  "lng": 135.6374833,
  "map": "https://goo.gl/maps/Uz15oJH5U7U2",
  "website": "http://www.hirakatapark.co.jp/",
  "logo": null,
  "aliases": [
   "Hirakata Park",
   "Hirakata Park (Wonder Garden)",
   "ひらかたパーク Wonder Garden",
   "ひらかたパーク ワンダーガーデン",
   "ひらかたパークワンダーガーデン"
  ]
 },
 {
  "canonical": "みさき公園",
  "lineage_id": 50,
  "en": "Misaki Park",
  "zh": null,
  "country": "Japan",
  "location_ja": "岬町大阪府",
  "location_en": "Misaki Town, Osaka Prefecture, Japan",
  "lat": 34.3274484,
  "lng": 135.1593043,
  "map": "https://goo.gl/maps/13D4TFarwv12",
  "website": "http://www.nankai.co.jp/misaki/",
  "logo": null,
  "aliases": [
   "Misaki Park"
  ]
 },
 {
  "canonical": "よこはま動物園ズーラシア",
  "lineage_id": 12,
  "en": "Yokohama Zoo \"Zoorasia\"",
  "zh": null,
  "country": "Japan",
  "location_ja": "横浜神奈川県",
  "location_en": "Yokohama, Kanagawa Prefecture, Japan",
  "lat": 35.4948688,
  "lng": 139.5243211,
  "map": "https://goo.gl/maps/j23gm6VW4Zo",
  "website": "http://www.hama-midorinokyokai.or.jp/zoo/zoorasia/",
  "logo": null,
  "aliases": [
   "Yokohama Zoo \"Zoorasia\""
  ]
 },
 {
  "canonical": "アドベンチャーワールド",
  "lineage_id": 29,
  "en": "Adventure World",
  "zh": null,
  "country": "Japan",
  "location_ja": "白浜町和歌山県",
  "location_en": "Shirahama, Wakayama Prefecture, Japan",
  "lat": 33.6678459,
  "lng": 135.3738168,
  "map": "https://goo.gl/maps/Z2vDjBgTPAG2",
  "website": "http://www.aws-s.com/",
  "logo": null,
  "aliases": [
   "Adventure World"
  ]
 },
 {
  "canonical": "ソウル大公園動物園",
  "lineage_id": 78,
  "en": "Seoul Zoo",
  "zh": "首爾動物園",
  "country": "South Korea",
  "location_ja": "京畿道",
  "location_en": "Gyeonggi-do, South Korea",
  "lat": 37.4215021,
  "lng": 127.017742,
  "map": "https://goo.gl/maps/HU9yotcVBXQ2",
  "website": "http://grandpark.seoul.go.kr",
  "logo": null,
  "aliases": [
   "Seoul Zoo"
  ]
 },
 {
  "canonical": "ネオパークオキナワ",
  "lineage_id": 292,
  "en": "Neo Park Okinawa",
  "zh": null,
  "country": "Japan",
  "location_ja": "名護市沖縄県",
  "location_en": "Nago, Okinawa, Japan",
  "lat": 26.3518089,
  "lng": 127.5471944,
  "map": "https://goo.gl/maps/kc4f8PN3xCefmg936",
  "website": "https://www.neopark.co.jp/",
  "logo": null,
  "aliases": [
   "Neo Park Okinawa"
  ]
 },
 {
  "canonical": "三島市立公園 楽寿園",
  "lineage_id": 27,
  "en": "Mishima Rakujuen Park",
  "zh": null,
  "country": "Japan",
  "location_ja": "三島市静岡県",
  "location_en": "Mishima, Shizuoka Prefecture, Japan",
  "lat": 35.1248786,
  "lng": 138.9087188,
  "map": "https://goo.gl/maps/y26QhbPcexm",
  "website": "https://www.city.mishima.shizuoka.jp/rakujyu/",
  "logo": null,
  "aliases": [
   "Mishima Rakujuen Park",
   "三島市楽寿園"
  ]
 },
 {
  "canonical": "九十九島動植物園森きらら",
  "lineage_id": 19,
  "en": "Kujukushima Zoological and Botanical Garden Morikirara",
  "zh": null,
  "country": "Japan",
  "location_ja": "佐世保市長崎県",
  "location_en": "Sasebo, Nagasaki Prefecture, Japan",
  "lat": 33.1512305,
  "lng": 129.6873023,
  "map": "https://goo.gl/maps/1pRgFW9fo9v",
  "website": "https://www.morikirara.jp/",
  "logo": null,
  "aliases": [
   "Kujukushima Zoological and Botanical Garden Morikirara",
   "西海国立公園九十九島動植物園"
  ]
 },
 {
  "canonical": "京都市動物園",
  "lineage_id": 2,
  "en": "Kyoto City Zoo",
  "zh": null,
  "country": "Japan",
  "location_ja": "京都市京都府左京区",
  "location_en": "Kyoto City, Kyoto Prefecture, Sakyo Ward, Japan",
  "lat": 35.0126991,
  "lng": 135.7839212,
  "map": "https://goo.gl/maps/BzPvCJ64eiB2",
  "website": "http://www5.city.kyoto.jp/zoo/",
  "logo": null,
  "aliases": [
   "Kyoto City Zoo"
  ]
 },
 {
  "canonical": "仙台市八木山動物公園",
  "lineage_id": 45,
  "en": "Selcohome Zoo Paradise Yagiyama",
  "zh": null,
  "country": "Japan",
  "location_ja": "太白区仙台市",
  "location_en": "Taihaku Ward, Sendai, Miyagi Prefecture, Japan",
  "lat": 38.245601,
  "lng": 140.8446113,
  "map": "https://goo.gl/maps/S4dSPcsEcH62",
  "website": "http://www.city.sendai.jp/zoo/index.html",
  "logo": null,
  "aliases": [
   "Selcohome Zoo Paradise Yagiyama",
   "セルコホーム ズーパラダイス八木山",
   "八木山動物公園 フォレスタ"
  ]
 },
 {
  "canonical": "伊豆シャボテン動物公園",
  "lineage_id": 143,
  "en": "Izu Shaboten Zoo",
  "zh": null,
  "country": "Japan",
  "location_ja": "伊東市静岡県",
  "location_en": "Itō, Shizuoka Prefecture, Japan",
  "lat": 34.9074178,
  "lng": 139.0957297,
  "map": "https://goo.gl/maps/iTyrJWJe9HU2",
  "website": "https://izushaboten.com/",
  "logo": null,
  "aliases": [
   "Izu Shaboten Zoo"
  ]
 },
 {
  "canonical": "到津の森公園",
  "lineage_id": 41,
  "en": "Itozu no Mori Zoological Park",
  "zh": null,
  "country": "Japan",
  "location_ja": "北九州市福岡県",
  "location_en": "Kitakyushu, Fukuoka Prefecture, Japan",
  "lat": 33.8738674,
  "lng": 130.8444053,
  "map": "https://goo.gl/maps/a4z75hLhZ692",
  "website": "http://www.itozu-zoo.jp/",
  "logo": null,
  "aliases": [
   "Itozu no Mori Zoological Park",
   "いのちのたび博物館附属動物園"
  ]
 },
 {
  "canonical": "千葉市動物公園",
  "lineage_id": 8,
  "en": "Chiba Zoological Park",
  "zh": null,
  "country": "Japan",
  "location_ja": "千葉県関東地方",
  "location_en": "Chiba Prefecture, Japan",
  "lat": 35.6449037,
  "lng": 140.1250899,
  "map": "https://goo.gl/maps/14c7BwdSTkr",
  "website": "https://www.city.chiba.jp/zoo/",
  "logo": null,
  "aliases": [
   "Chiba Zoological Park"
  ]
 },
 {
  "canonical": "台北市立動物園",
  "lineage_id": 55,
  "en": "Taipei Zoo",
  "zh": "臺北市立動物園",
  "country": "Taiwan",
  "location_ja": "台北市",
  "location_en": "Taipei City, Taiwan",
  "lat": 24.9971631,
  "lng": 121.5829622,
  "map": "https://goo.gl/maps/9vr6Usew49x",
  "website": "https://www.zoo.gov.taipei/Default.aspx",
  "logo": null,
  "aliases": [
   "Taipei Zoo"
  ]
 },
 {
  "canonical": "周南市徳山動物園",
  "lineage_id": 6,
  "en": "Tokuyama Zoo",
  "zh": null,
  "country": "Japan",
  "location_ja": "周南市山口県",
  "location_en": "Shūnan, Yamaguchi Prefecture, Japan",
  "lat": 34.061274,
  "lng": 131.8129122,
  "map": "https://goo.gl/maps/bMAGo54PQxq",
  "website": "http://www.city.shunan.lg.jp/site/zoo/",
  "logo": null,
  "aliases": [
   "Tokuyama Zoo",
   "徳山動物園"
  ]
 },
 {
  "canonical": "埼玉県こども動物自然公園",
  "lineage_id": 9,
  "en": "Saitama Children's Zoo",
  "zh": null,
  "country": "Japan",
  "location_ja": "東松山市埼玉県",
  "location_en": "Highashimatsuyama, Saitama Prefecture, Japan",
  "lat": 35.9993587,
  "lng": 139.3728133,
  "map": "https://goo.gl/maps/C8F9LtGktcH2",
  "website": "http://www.parks.or.jp/sczoo/",
  "logo": null,
  "aliases": [
   "Saitama Children's Zoo"
  ]
 },
 {
  "canonical": "多摩動物公園",
  "lineage_id": 17,
  "en": "Tama Zoological Park",
  "zh": null,
  "country": "Japan",
  "location_ja": "日野市東京都",
  "location_en": "Hino, Tokyo, Japan",
  "lat": 35.6495222,
  "lng": 139.4000674,
  "map": "https://goo.gl/maps/Emr9wdQYAm22",
  "website": "http://www.tokyo-zoo.net/zoo/tama/",
  "logo": null,
  "aliases": [
   "Tama Zoological Park"
  ]
 },
 {
  "canonical": "大牟田市動物園",
  "lineage_id": 21,
  "en": "Omuta City Zoo",
  "zh": null,
  "country": "Japan",
  "location_ja": "大牟田市福岡県",
  "location_en": "Omuta, Fukuoka Prefecture, Japan",
  "lat": 33.019018,
  "lng": 130.4423493,
  "map": "https://goo.gl/maps/LwmybsWdhww",
  "website": "https://omutacityzoo.org/",
  "logo": null,
  "aliases": [
   "Omuta City Zoo"
  ]
 },
 {
  "canonical": "天王寺動物園",
  "lineage_id": 22,
  "en": "Osaka Tennōji Zoo",
  "zh": null,
  "country": "Japan",
  "location_ja": "天王寺区大阪市",
  "location_en": "Tennōji-ku, Osaka, Japan",
  "lat": 34.6505304,
  "lng": 135.5062635,
  "map": "https://goo.gl/maps/jgQy9DYiBJJ2",
  "website": "http://www.city.osaka.lg.jp/contents/wdu170/tennojizoo/",
  "logo": null,
  "aliases": [
   "Osaka Tennōji Zoo"
  ]
 },
 {
  "canonical": "姫路セントラルパーク",
  "lineage_id": 14,
  "en": "Himeji Central Park",
  "zh": null,
  "country": "Japan",
  "location_ja": "姫路市兵庫県",
  "location_en": "Himeji, Hyōgo Prefecture, Japan",
  "lat": 34.8710334,
  "lng": 134.7621733,
  "map": "https://goo.gl/maps/QLH8LsUtgm42",
  "website": "http://www.central-park.co.jp/",
  "logo": null,
  "aliases": [
   "Himeji Central Park"
  ]
 },
 {
  "canonical": "姫路市立動物園",
  "lineage_id": 70,
  "en": "Himeji Municipal Zoo",
  "zh": null,
  "country": "Japan",
  "location_ja": "姫路市兵庫県",
  "location_en": "Himeji, Hyōgo Prefecture, Japan",
  "lat": 34.8372111,
  "lng": 134.6921642,
  "map": "https://goo.gl/maps/Em6HbHWwLHC2",
  "website": "http://www.city.himeji.lg.jp/dobutuen/",
  "logo": null,
  "aliases": [
   "Himeji Municipal Zoo"
  ]
 },
 {
  "canonical": "宮崎市フェニックス自然動物園",
  "lineage_id": 30,
  "en": "Miyazaki City Phoenix Zoo",
  "zh": null,
  "country": "Japan",
  "location_ja": "宮崎市宮崎県",
  "location_en": "Miyazaki City, Miyazaki Prefecture, Japan",
  "lat": 31.9828945,
  "lng": 131.4739183,
  "map": "https://goo.gl/maps/Gm2Rjx3mpP72",
  "website": "http://www.miyazaki-city-zoo.jp/index.html",
  "logo": null,
  "aliases": [
   "Miyazaki City Phoenix Zoo"
  ]
 },
 {
  "canonical": "富士サファリパーク",
  "lineage_id": 23,
  "en": "Fuji Safari Park",
  "zh": null,
  "country": "Japan",
  "location_ja": "裾野市静岡県",
  "location_en": "Susuno, Shizuoka Prefecture, Japan",
  "lat": 35.2587801,
  "lng": 138.8076475,
  "map": "https://goo.gl/maps/PLj4TTrSWVN2",
  "website": "https://www.fujisafari.co.jp/",
  "logo": null,
  "aliases": [
   "Fuji Safari Park",
   "富士サファリパーク"
  ]
 },
 {
  "canonical": "富山市ファミリーパーク",
  "lineage_id": 63,
  "en": "Toyama Municipal Family Park Zoo",
  "zh": null,
  "country": "Japan",
  "location_ja": "富山市富山県",
  "location_en": "Toyama, Toyama Prefecture, Japan",
  "lat": 36.6909023,
  "lng": 137.1460493,
  "map": "https://goo.gl/maps/v3zCNrq2igs",
  "website": "http://www.toyama-familypark.jp/",
  "logo": null,
  "aliases": [
   "Toyama Municipal Family Park Zoo"
  ]
 },
 {
  "canonical": "川崎市夢見ヶ崎動物公園",
  "lineage_id": 4,
  "en": "Yumemigasaki Zoological Park",
  "zh": null,
  "country": "Japan",
  "location_ja": "川崎市神奈川県",
  "location_en": "Kawasaki, Kanagawa Prefecture, Japan",
  "lat": 35.5491319,
  "lng": 139.6630574,
  "map": "https://goo.gl/maps/kfMhVjS52Gs",
  "website": "http://www.city.kawasaki.jp/saiwai/page/0000045037.html",
  "logo": null,
  "aliases": [
   "Yumemigasaki Zoological Park"
  ]
 },
 {
  "canonical": "市原ぞうの国",
  "lineage_id": 33,
  "en": "Ichihara Elephant Kingdom",
  "zh": null,
  "country": "Japan",
  "location_ja": "市原市千葉県",
  "location_en": "Ichihara, Chiba Prefecture, Japan",
  "lat": 35.3547971,
  "lng": 140.1801333,
  "map": "https://goo.gl/maps/t6TwYSxU2dT2",
  "website": "https://zounokuni.com/red-panda/",
  "logo": null,
  "aliases": [
   "Ichihara Elephant Kingdom"
  ]
 },
 {
  "canonical": "市川市動植物園",
  "lineage_id": 1,
  "en": "Ichikawa Zoological & Botanical Gardens",
  "zh": null,
  "country": "Japan",
  "location_ja": "市川市千葉県",
  "location_en": "Ichikawa, Chiba Prefecture, Japan",
  "lat": 35.7642063,
  "lng": 139.9638014,
  "map": "https://goo.gl/maps/WSyNu7HFhH42",
  "website": "http://www.city.ichikawa.lg.jp/zoo/index.html",
  "logo": null,
  "aliases": [
   "Ichikawa Zoological & Botanical Gardens"
  ]
 },
 {
  "canonical": "広島市安佐動物公園",
  "lineage_id": 40,
  "en": "Hiroshima City Asa Zoological Park",
  "zh": null,
  "country": "Japan",
  "location_ja": "広島市広島県",
  "location_en": "Hiroshima Prefecture, Japan",
  "lat": 34.4982738,
  "lng": 132.4386406,
  "map": "https://goo.gl/maps/6RKGqYpdxew",
  "website": "http://www.asazoo.jp/",
  "logo": null,
  "aliases": [
   "Hiroshima City Asa Zoological Park"
  ]
 },
 {
  "canonical": "恩賜上野動物園",
  "lineage_id": 54,
  "en": "Ueno Zoological Gardens",
  "zh": null,
  "country": "Japan",
  "location_ja": "台東区東京",
  "location_en": "Taitō, Tokyo, Japan",
  "lat": 35.7164578,
  "lng": 139.769129,
  "map": "https://goo.gl/maps/o6BBZkWDuv32",
  "website": "http://www.tokyo-zoo.net/zoo/ueno/",
  "logo": null,
  "aliases": [
   "Ueno Zoological Gardens",
   "上野動物園"
  ]
 },
 {
  "canonical": "愛媛県立とべ動物園",
  "lineage_id": 46,
  "en": "Tobe Zoo",
  "zh": null,
  "country": "Japan",
  "location_ja": "砥部町愛媛県四国",
  "location_en": "Tobe, Ehime Prefecture, Shikoku, Japan",
  "lat": 35.9885019,
  "lng": 134.5754522,
  "map": "https://goo.gl/maps/AiYMttHQEdA2",
  "website": "https://www.tobezoo.com/",
  "logo": null,
  "aliases": [
   "Tobe Zoo",
   "Tobe Zoological Park",
   "とべ動物園"
  ]
 },
 {
  "canonical": "日立市かみね動物園",
  "lineage_id": 25,
  "en": "Hitachi Kamine Zoo",
  "zh": null,
  "country": "Japan",
  "location_ja": "日立市茨城県",
  "location_en": "Hitachi, Ibaraki Prefecture, Japan",
  "lat": 36.6067412,
  "lng": 140.6559983,
  "map": "https://goo.gl/maps/tBaGy6Ap8DP2",
  "website": "http://www.city.hitachi.lg.jp/zoo/",
  "logo": null,
  "aliases": [
   "Hitachi Kamine Zoo",
   "日立かみね動物園"
  ]
 },
 {
  "canonical": "旭川市旭山動物園",
  "lineage_id": 37,
  "en": "Asahiyama Zoo",
  "zh": null,
  "country": "Japan",
  "location_ja": "旭川市北海道",
  "location_en": "Asahikawa, Hokkaido, Japan",
  "lat": 43.7684289,
  "lng": 142.4778913,
  "map": "https://goo.gl/maps/pRRcmyyfEUF2",
  "website": "http://www.city.asahikawa.hokkaido.jp/asahiyamazoo/",
  "logo": null,
  "aliases": [
   "Asahiyama Zoo",
   "旭山動物園"
  ]
 },
 {
  "canonical": "札幌市円山動物園",
  "lineage_id": 7,
  "en": "Sapporo Maruyama Zoo",
  "zh": null,
  "country": "Japan",
  "location_ja": "中央区札幌市北海道",
  "location_en": "Sapporo, Hokkaido, Japan",
  "lat": 43.051468,
  "lng": 141.3056561,
  "map": "https://goo.gl/maps/EY3uZRXNWNr",
  "website": "http://www.city.sapporo.jp/zoo/index.html",
  "logo": null,
  "aliases": [
   "Sapporo Maruyama Zoo"
  ]
 },
 {
  "canonical": "東京都立大島公園動物園",
  "lineage_id": 64,
  "en": "Tokyo Toritsu Oshima Park",
  "zh": null,
  "country": "Japan",
  "location_ja": "伊豆大島東京都",
  "location_en": "Ōshima, Tokyo, Japan",
  "lat": 34.7607382,
  "lng": 139.4311267,
  "map": "https://goo.gl/maps/ygjtnJ59iXw",
  "website": "http://www.soumu.metro.tokyo.jp/11osima/park/www/htdocs/parkindex.html",
  "logo": null,
  "aliases": [
   "Tokyo Toritsu Oshima Park",
   "東京都立大島公園"
  ]
 },
 {
  "canonical": "東北サファリパーク",
  "lineage_id": 34,
  "en": "Tohoku Safari Park",
  "zh": null,
  "country": "Japan",
  "location_ja": "二本松市福島県",
  "location_en": "Nihonmatsu, Fukushima Prefecture, Japan",
  "lat": 37.6410782,
  "lng": 140.3484296,
  "map": "https://goo.gl/maps/TQwcwc8PpyL2",
  "website": "http://tohoku-safaripark.co.jp/",
  "logo": null,
  "aliases": [
   "Tohoku Safari Park"
  ]
 },
 {
  "canonical": "東山動植物園",
  "lineage_id": 264,
  "en": "Higashiyama Zoo and Botanical Gardens",
  "zh": null,
  "country": "Japan",
  "location_ja": "千種区名古屋市",
  "location_en": "Chikusa-ku, Nagoya, Japan",
  "lat": 35.1554125,
  "lng": 136.981182,
  "map": "https://goo.gl/maps/uGmgLy5w5PCy2Vzn6",
  "website": "http://www.higashiyama.city.nagoya.jp/",
  "logo": null,
  "aliases": [
   "Higashiyama Zoo",
   "Higashiyama Zoo and Botanical Gardens"
  ]
 },
 {
  "canonical": "東武動物公園",
  "lineage_id": 18,
  "en": "Tobu Zoo",
  "zh": null,
  "country": "Japan",
  "location_ja": "宮代町南埼玉郡埼玉県",
  "location_en": "Miyashiro, Minamisaitama, Saitama Prefecture, Japan",
  "lat": 36.0196909,
  "lng": 139.7174791,
  "map": "https://goo.gl/maps/74vbDPHR5DK2",
  "website": "http://www.tobuzoo.com/park/",
  "logo": null,
  "aliases": [
   "Tobu Zoo"
  ]
 },
 {
  "canonical": "桐生が岡動物園",
  "lineage_id": 289,
  "en": "Kiryugaoka Zoo",
  "zh": null,
  "country": "Japan",
  "location_ja": "桐生市群馬県",
  "location_en": "Kiryu, Gunma Prefecture, Japan",
  "lat": 36.4198651,
  "lng": 139.3324586,
  "map": "https://goo.gl/maps/vd74wUJnUA7cyL7x7",
  "website": "https://www.city.kiryu.lg.jp/zoo/",
  "logo": null,
  "aliases": [
   "Kiryugaoka Zoo"
  ]
 },
 {
  "canonical": "横浜・八景島シーパラダイス",
  "lineage_id": 190,
  "en": "Hakkeijima Sea Paradise",
  "zh": null,
  "country": "Japan",
  "location_ja": "八景島横浜神奈川県",
  "location_en": "Hakkeijima, Yokohama, Kanagawa Prefecture, Japan",
  "lat": 35.3364318,
  "lng": 139.6440622,
  "map": "https://goo.gl/maps/xFgBvqMLqdrmcvSp7",
  "website": "http://www.seaparadise.co.jp/",
  "logo": null,
  "aliases": [
   "Hakkeijima Sea Paradise"
  ]
 },
 {
  "canonical": "横浜市立野毛山動物園",
  "lineage_id": 38,
  "en": "Nogeyama Zoo",
  "zh": null,
  "country": "Japan",
  "location_ja": "西区横浜",
  "location_en": "Nishi Ward, Yokohama, Japan",
  "lat": 35.4472864,
  "lng": 139.6205233,
  "map": "https://goo.gl/maps/TbqkYpePr5P2",
  "website": "http://www.hama-midorinokyokai.or.jp/zoo/nogeyama/",
  "logo": null,
  "aliases": [
   "Nogeyama Zoo",
   "野毛山動物園"
  ]
 },
 {
  "canonical": "江戸川区自然動物園",
  "lineage_id": 73,
  "en": "Edogawa City Natural Zoo",
  "zh": null,
  "country": "Japan",
  "location_ja": "江戸川東京都",
  "location_en": "Edogawa, Tokyo Prefecture, Japan",
  "lat": 35.6710531,
  "lng": 139.8562134,
  "map": "https://goo.gl/maps/tDgbZr73HuQ2",
  "website": "http://edogawa-kankyozaidan.jp/zoo/",
  "logo": null,
  "aliases": [
   "Edogawa City Natural Zoo"
  ]
 },
 {
  "canonical": "池田動物園",
  "lineage_id": 15,
  "en": "Ikeda Zoo",
  "zh": null,
  "country": "Japan",
  "location_ja": "岡山市岡山県地方",
  "location_en": "Okayama, Okayama Prefecture, Chugoku Region, Japan",
  "lat": 34.6746507,
  "lng": 133.9040114,
  "map": "https://goo.gl/maps/2bjmzYUBiqk",
  "website": "http://www.urban.ne.jp/home/ikedazoo/",
  "logo": null,
  "aliases": [
   "Ikeda Zoo"
  ]
 },
 {
  "canonical": "浜松市動物園",
  "lineage_id": 24,
  "en": "Hamamatsu Municipal Zoo",
  "zh": null,
  "country": "Japan",
  "location_ja": "浜松市静岡県",
  "location_en": "Hamamatsu, Shizuoka Prefecture, Japan",
  "lat": 34.7658483,
  "lng": 137.6301835,
  "map": "https://goo.gl/maps/oXmmXnkH1h52",
  "website": "http://www.hamazoo.net/",
  "logo": null,
  "aliases": [
   "Hamamatsu Municipal Zoo"
  ]
 },
 {
  "canonical": "熊本市動植物園",
  "lineage_id": 306,
  "en": "Kumamoto City Zoological and Botanical Gardens",
  "zh": null,
  "country": "Japan",
  "location_ja": "東区熊本市熊本県",
  "location_en": "Higashi Ward, Kumamoto, Japan",
  "lat": 32.7749943,
  "lng": 130.7392573,
  "map": "https://goo.gl/maps/Aveudmjy2829ox8Z6",
  "website": "https://www.ezooko.jp/",
  "logo": null,
  "aliases": [
   "Kumamoto City Zoological and Botanical Gardens"
  ]
 },
 {
  "canonical": "熱川バナナワニ園",
  "lineage_id": 59,
  "en": "Atagawa Tropical & Alligator Garden",
  "zh": null,
  "country": "Japan",
  "location_ja": "東伊豆町賀茂郡静岡県",
  "location_en": "Higashiizu-cho, Kamo, Shizuoka Prefecture, Japan",
  "lat": 34.8161636,
  "lng": 139.0656855,
  "map": "https://goo.gl/maps/H7nX1JM8hAv",
  "website": "http://bananawani.jp/",
  "logo": null,
  "aliases": [
   "Atagawa Tropical & Alligator Garden"
  ]
 },
 {
  "canonical": "甲府市遊亀公園附属動物園",
  "lineage_id": 28,
  "en": "Yuki Zoo",
  "zh": null,
  "country": "Japan",
  "location_ja": "甲府市山梨県",
  "location_en": "Kōfu City, Yamanashi Prefecture, Japan",
  "lat": 35.6513653,
  "lng": 138.5694874,
  "map": "https://goo.gl/maps/qpxjKiF6SCu",
  "website": "https://www.city.kofu.yamanashi.jp/zoo/",
  "logo": null,
  "aliases": [
   "Yuki Zoo"
  ]
 },
 {
  "canonical": "神戸どうぶつ王国",
  "lineage_id": 58,
  "en": "Kobe Animal Kingdom",
  "zh": null,
  "country": "Japan",
  "location_ja": "ポートアイランド中央区神戸市",
  "location_en": "Port Island, Chūō-ku, Kobe, Japan",
  "lat": 34.654646,
  "lng": 135.2203581,
  "map": "https://goo.gl/maps/eD1oUBUky182",
  "website": "https://www.kobe-oukoku.com/",
  "logo": null,
  "aliases": [
   "Kobe Animal Kingdom"
  ]
 },
 {
  "canonical": "神戸市立王子動物園",
  "lineage_id": 36,
  "en": "Kobe Oji Zoo",
  "zh": null,
  "country": "Japan",
  "location_ja": "灘区神戸市",
  "location_en": "Nada Ward, Kobe, Japan",
  "lat": 34.710002,
  "lng": 135.2126901,
  "map": "https://goo.gl/maps/8P5cFSjECns",
  "website": "http://www.kobe-ojizoo.jp/",
  "logo": null,
  "aliases": [
   "Kobe Oji Zoo",
   "王子動物園"
  ]
 },
 {
  "canonical": "福岡市動植物園",
  "lineage_id": 32,
  "en": "Fukuoka Municipal Zoo and Botanical Garden",
  "zh": null,
  "country": "Japan",
  "location_ja": "中央区福岡市福岡県",
  "location_en": "Chuo-ku, Fukuoka City, Fukuoka Prefecture, Japan",
  "lat": 33.5812228,
  "lng": 130.3829501,
  "map": "https://goo.gl/maps/XZZzwgWnAUq",
  "website": "http://zoo.city.fukuoka.lg.jp/",
  "logo": null,
  "aliases": [
   "Fukuoka Municipal Zoo and Botanical Garden",
   "Fukuoka Municipal Zoological and Botanical Garden",
   "福岡市動物園"
  ]
 },
 {
  "canonical": "福州大熊猫研究中心",
  "lineage_id": 291,
  "en": "Fuzhou Giant Panda Research Center",
  "zh": "福州熊貓世界",
  "country": "China",
  "location_ja": null,
  "location_en": "Fuzhou City, Fujian Province, China",
  "lat": 26.0882994,
  "lng": 119.2856472,
  "map": "https://goo.gl/maps/UcJ4p1eoeawuHYJTA",
  "website": "https://www.fuzhou.gov.cn/zwgk/zdlyxxgk/chxjs/cxjsdt/202111/t20211130_4256928.htm",
  "logo": null,
  "aliases": [
   "Fuzhou Giant Panda Research Center"
  ]
 },
 {
  "canonical": "福知山市動物園",
  "lineage_id": 61,
  "en": "Fukuchiyama Zoo",
  "zh": null,
  "country": "Japan",
  "location_ja": "福知山市京都府",
  "location_en": "Fukuchiyama, Japan",
  "lat": 35.3101894,
  "lng": 135.1364023,
  "map": "https://goo.gl/maps/XZvhpftc9L72",
  "website": "http://www.sandanike-kouen.or.jp/zoo.php",
  "logo": null,
  "aliases": [
   "Fukuchiyama Zoo"
  ]
 },
 {
  "canonical": "秋吉台自然動物公園サファリランド",
  "lineage_id": 42,
  "en": "Akiyoshidai Safari Land",
  "zh": null,
  "country": "Japan",
  "location_ja": "美祢市山口県",
  "location_en": "Mine, Yamaguchi Prefecture, Japan",
  "lat": 34.2683467,
  "lng": 131.3007106,
  "map": "https://goo.gl/maps/UT1Be9m6ukw",
  "website": "http://www.safariland.jp/",
  "logo": null,
  "aliases": [
   "Akiyoshidai Safari Land",
   "秋吉台サファリランド"
  ]
 },
 {
  "canonical": "秋田市大森山動物園ミルヴェ",
  "lineage_id": 26,
  "en": "Akita Oomoriyama Zoo \"Milve\"",
  "zh": null,
  "country": "Japan",
  "location_ja": "秋田市秋田県",
  "location_en": "Akita City, Akita Prefecture, Japan",
  "lat": 39.671723,
  "lng": 140.0741066,
  "map": "https://goo.gl/maps/6xoxQ1KCS3Q2",
  "website": "https://www.city.akita.lg.jp/zoo/",
  "logo": null,
  "aliases": [
   "Akita Oomoriyama Zoo \"Milve\""
  ]
 },
 {
  "canonical": "群馬サファリパーク",
  "lineage_id": 57,
  "en": "Gunma Safari Park",
  "zh": null,
  "country": "Japan",
  "location_ja": "群馬県",
  "location_en": "Gunma Prefecture, Japan",
  "lat": 36.227195,
  "lng": 138.8849445,
  "map": "https://goo.gl/maps/at8sz15RscJ2",
  "website": "http://www.safari.co.jp/",
  "logo": null,
  "aliases": [
   "Gunma Safari Park"
  ]
 },
 {
  "canonical": "羽村市動物公園",
  "lineage_id": 69,
  "en": "Hamura Zoo",
  "zh": null,
  "country": "Japan",
  "location_ja": "羽村市東京都",
  "location_en": "Hamura, Tokyo, Japan",
  "lat": 35.7673958,
  "lng": 139.3266258,
  "map": "https://goo.gl/maps/EwC6VTy9MEp",
  "website": "http://www.t-net.ne.jp/~hamura-z/",
  "logo": null,
  "aliases": [
   "Hamura Zoo"
  ]
 },
 {
  "canonical": "豊橋総合動植物公園",
  "lineage_id": 235,
  "en": "Non Hoi Park",
  "zh": null,
  "country": "Japan",
  "location_ja": "豊橋市愛知県",
  "location_en": "Toyohashi, Aichi, Japan",
  "lat": 34.7202041,
  "lng": 137.4302548,
  "map": "https://goo.gl/maps/a4FaTjTWQLBZDVEK9",
  "website": "https://www.nonhoi.jp/",
  "logo": null,
  "aliases": [
   "Non Hoi Park",
   "のんほいパーク"
  ]
 },
 {
  "canonical": "那須どうぶつ王国",
  "lineage_id": 53,
  "en": "Nasu Animal Kingdom",
  "zh": null,
  "country": "Japan",
  "location_ja": "那須郡栃木県",
  "location_en": "Nasu District, Tochigi Prefecture, Japan",
  "lat": 37.1290293,
  "lng": 140.0349543,
  "map": "https://goo.gl/maps/32qL3cSPkwP2",
  "website": "http://www.nasu-oukoku.com/",
  "logo": null,
  "aliases": [
   "Nasu Animal Kingdom"
  ]
 },
 {
  "canonical": "釧路市動物園",
  "lineage_id": 11,
  "en": "Kushiro City Zoo",
  "zh": null,
  "country": "Japan",
  "location_ja": "釧路市釧路総合振興局",
  "location_en": "Kushiro, Kushiro Subprefecture, Hokkaido, Japan",
  "lat": 43.0812619,
  "lng": 144.2343677,
  "map": "https://goo.gl/maps/8JVH1ftPJHm",
  "website": "http://www.city.kushiro.lg.jp/zoo/",
  "logo": null,
  "aliases": [
   "Kushiro City Zoo"
  ]
 },
 {
  "canonical": "長崎バイオパーク",
  "lineage_id": 3,
  "en": "Nagasaki Bio Park",
  "zh": null,
  "country": "Japan",
  "location_ja": "長崎県西海市西彼町中山郷",
  "location_en": "Nagasaki Prefecture, Japan",
  "lat": 32.9884125,
  "lng": 129.7810003,
  "map": "https://goo.gl/maps/L1wXjRmYYeo",
  "website": "http://www.biopark.co.jp",
  "logo": null,
  "aliases": [
   "Nagasaki Bio Park"
  ]
 },
 {
  "canonical": "長野市茶臼山動物園",
  "lineage_id": 10,
  "en": "Nagano Chausuyama Zoo",
  "zh": null,
  "country": "Japan",
  "location_ja": "長野市長野県",
  "location_en": "Nagano, Nagano Prefecture, Japan",
  "lat": 36.5867283,
  "lng": 138.1132733,
  "map": "https://goo.gl/maps/3sQ2w9qjTdS2",
  "website": "http://www.chausuyama.com/",
  "logo": null,
  "aliases": [
   "Nagano Chausuyama Zoo",
   "茶臼山動物園"
  ]
 },
 {
  "canonical": "静岡市立日本平動物園",
  "lineage_id": 16,
  "en": "Shizuoka Municipal Nihondaira Zoo",
  "zh": null,
  "country": "Japan",
  "location_ja": "静岡市静岡県",
  "location_en": "Shizuoka, Shizuoka Prefecture, Japan",
  "lat": 34.9796519,
  "lng": 138.4373118,
  "map": "https://goo.gl/maps/wFRiaNci3Qu",
  "website": "http://www.nhdzoo.jp/",
  "logo": null,
  "aliases": [
   "Nihondaira Zoo",
   "Shizuoka Municipal Nihondaira Zoo"
  ]
 },
 {
  "canonical": "高知県立のいち動物公園",
  "lineage_id": 60,
  "en": "Noichi Zoological Park of Kochi Prefecture",
  "zh": null,
  "country": "Japan",
  "location_ja": "香南市高知県",
  "location_en": "Konan, Kōchi Prefecture, Japan",
  "lat": 33.5700558,
  "lng": 133.7052225,
  "map": "https://goo.gl/maps/4p2bfiBPbGL2",
  "website": "http://www.noichizoo.or.jp/",
  "logo": null,
  "aliases": [
   "Noichi Zoological Park",
   "Noichi Zoological Park of Kochi Prefecture",
   "のいち動物公園"
  ]
 },
 {
  "canonical": "鯖江市西山動物園",
  "lineage_id": 13,
  "en": "Nishiyama Zoo",
  "zh": null,
  "country": "Japan",
  "location_ja": "鯖江市福井県",
  "location_en": "Sabae, Fukui Prefecture, Japan",
  "lat": 35.9506249,
  "lng": 136.1787345,
  "map": "https://goo.gl/maps/vVxLDci5HeE2",
  "website": "https://www.city.sabae.fukui.jp/nishiyama_zoo/",
  "logo": null,
  "aliases": [
   "Nishiyama Zoo",
   "西山動物公園"
  ]
 },
 {
  "canonical": "鹿児島市平川動物公園",
  "lineage_id": 20,
  "en": "Hirakawa Zoo",
  "zh": null,
  "country": "Japan",
  "location_ja": "鹿児島市鹿児島県",
  "location_en": "Kagoshima, Kagoshima Prefecture, Japan",
  "lat": 31.4630427,
  "lng": 130.4997487,
  "map": "https://goo.gl/maps/RHkCy9Syv8G2",
  "website": "http://hirakawazoo.jp/",
  "logo": null,
  "aliases": [
   "Hirakawa Zoo",
   "平川動物公園"
  ]
 },
 {
  "canonical": "ABQ BioPark - Zoo",
  "lineage_id": 189,
  "en": "ABQ BioPark - Zoo",
  "zh": null,
  "country": "USA",
  "location_ja": null,
  "location_en": "Albequerque, New Mexico, USA",
  "lat": 35.0788346,
  "lng": -106.6660283,
  "map": "https://goo.gl/maps/kQFjvE72NVS2",
  "website": "http://www.cabq.gov/culturalservices/biopark",
  "logo": null,
  "aliases": []
 },
 {
  "canonical": "Aalborg Zoo",
  "lineage_id": 184,
  "en": "Aalborg Zoo",
  "zh": null,
  "country": "Denmark",
  "location_ja": null,
  "location_en": "Aalborg, Region Nordjylland, Denmark",
  "lat": 57.0370298,
  "lng": 9.8958551,
  "map": "https://goo.gl/maps/M11ysgnxpAS2",
  "website": "https://aalborgzoo.dk/forside.aspx",
  "logo": null,
  "aliases": []
 },
 {
  "canonical": "Africam Safari, Puebla",
  "lineage_id": 142,
  "en": "Africam Safari, Puebla",
  "zh": null,
  "country": "Mexico",
  "location_ja": null,
  "location_en": "Puebla, Mexico",
  "lat": 18.9643204,
  "lng": -98.2038396,
  "map": "https://goo.gl/maps/UwKu7TQZFUm",
  "website": "http://www.africamsafari.com/",
  "logo": null,
  "aliases": []
 },
 {
  "canonical": "Akron Zoological Park",
  "lineage_id": 159,
  "en": "Akron Zoological Park",
  "zh": null,
  "country": "USA",
  "location_ja": null,
  "location_en": "Akron, Ohio, USA",
  "lat": 41.0760585,
  "lng": -81.5445777,
  "map": "https://goo.gl/maps/DpXRUGpKrz22",
  "website": "https://www.akronzoo.org",
  "logo": null,
  "aliases": []
 },
 {
  "canonical": "Altina Wildlife Park",
  "lineage_id": 218,
  "en": "Altina Wildlife Park",
  "zh": null,
  "country": "Australia",
  "location_ja": null,
  "location_en": "Griffith, New South Wales, Australia",
  "lat": -34.618643,
  "lng": 146.0565503,
  "map": "https://goo.gl/maps/3kXrjYkvVTZXfhob8",
  "website": "http://www.altinawildlife.com/",
  "logo": null,
  "aliases": []
 },
 {
  "canonical": "Amneville Zoo",
  "lineage_id": 223,
  "en": "Amneville Zoo",
  "zh": null,
  "country": "France",
  "location_ja": null,
  "location_en": "Amneville, France",
  "lat": 49.2464279,
  "lng": 6.1317702,
  "map": "https://goo.gl/maps/tDwVC1zUrzhUcDFw7",
  "website": "https://www.zoo-amneville.com/",
  "logo": null,
  "aliases": []
 },
 {
  "canonical": "Antwerp Zoo",
  "lineage_id": 222,
  "en": "Antwerp Zoo",
  "zh": null,
  "country": "Belgium",
  "location_ja": null,
  "location_en": "Antwerp, Belgium",
  "lat": 51.2163428,
  "lng": 4.4213527,
  "map": "https://goo.gl/maps/VAJRpqr7HqLnVnhcA",
  "website": "https://www.zooantwerpen.be/",
  "logo": null,
  "aliases": []
 },
 {
  "canonical": "Aqua Zoo Friesland",
  "lineage_id": 71,
  "en": "Aqua Zoo Friesland",
  "zh": null,
  "country": "Netherlands",
  "location_ja": null,
  "location_en": "Leeuwarden, Friesland Province, Netherlands",
  "lat": 53.2151734,
  "lng": 5.8807795,
  "map": "https://goo.gl/maps/ZzXQeezpAo52",
  "website": "https://www.aquazoo.nl/",
  "logo": null,
  "aliases": []
 },
 {
  "canonical": "Auckland Zoo",
  "lineage_id": 203,
  "en": "Auckland Zoo",
  "zh": null,
  "country": "New Zealand",
  "location_ja": null,
  "location_en": "Auckland, New Zealand",
  "lat": -36.864113,
  "lng": 174.7153076,
  "map": "https://goo.gl/maps/nPrSb68L4jqgr9R46",
  "website": "https://www.aucklandzoo.co.nz/",
  "logo": null,
  "aliases": []
 },
 {
  "canonical": "Australia Zoo",
  "lineage_id": 243,
  "en": "Australia Zoo",
  "zh": null,
  "country": "Australia",
  "location_ja": null,
  "location_en": "Beerwah, Queensland, Australia",
  "lat": -26.836393,
  "lng": 152.9617824,
  "map": "https://goo.gl/maps/WNyve1UJpWH7ArXV9",
  "website": "https://www.australiazoo.com.au/",
  "logo": null,
  "aliases": []
 },
 {
  "canonical": "Banham Zoo",
  "lineage_id": 140,
  "en": "Banham Zoo",
  "zh": null,
  "country": "UK",
  "location_ja": null,
  "location_en": "Banham, UK",
  "lat": 52.4503116,
  "lng": 0.9828977,
  "map": "https://goo.gl/maps/NUqMsUxC9u42",
  "website": "https://www.banhamzoo.co.uk/",
  "logo": null,
  "aliases": []
 },
 {
  "canonical": "Barcelona Zoo",
  "lineage_id": 260,
  "en": "Barcelona Zoo",
  "zh": null,
  "country": "Spain",
  "location_ja": null,
  "location_en": "Barcelona, Spain",
  "lat": 41.3863515,
  "lng": 2.1875575,
  "map": "https://g.page/zoo-de-barcelona-barcelona?share",
  "website": "https://www.zoobarcelona.cat/",
  "logo": null,
  "aliases": []
 },
 {
  "canonical": "Beekse Bergen Safaripark",
  "lineage_id": 259,
  "en": "Beekse Bergen Safaripark",
  "zh": null,
  "country": "Netherlands",
  "location_ja": null,
  "location_en": "Hilvarenbeek, Netherlands",
  "lat": 51.5292269,
  "lng": 5.1045096,
  "map": "https://goo.gl/maps/AXgsfF4tAARoszMT6",
  "website": "https://www.beeksebergen.nl/",
  "logo": null,
  "aliases": []
 },
 {
  "canonical": "Belfast Zoo",
  "lineage_id": 307,
  "en": "Belfast Zoo",
  "zh": null,
  "country": "UK",
  "location_ja": null,
  "location_en": "Belfast, Northern Ireland, UK",
  "lat": 54.6545975,
  "lng": -5.9426545,
  "map": "https://goo.gl/maps/LeM1BdywdkxxBC7P6",
  "website": "https://www.belfastzoo.co.uk",
  "logo": null,
  "aliases": []
 },
 {
  "canonical": "Bifengxia Wildlife Park",
  "lineage_id": 299,
  "en": "Bifengxia Wildlife Park",
  "zh": null,
  "country": "China",
  "location_ja": "Bifengxia Scenic Area, Yucheng District, Ya'an, Sichuan, China",
  "location_en": "Bifengxia Scenic Area, Yucheng District, Ya'an, Sichuan, China",
  "lat": 30.0652012,
  "lng": 102.9964627,
  "map": "https://goo.gl/maps/LgPysjPdnFVJ7Gea7",
  "website": "unknown",
  "logo": null,
  "aliases": []
 },
 {
  "canonical": "Binder Park Zoo",
  "lineage_id": 105,
  "en": "Binder Park Zoo",
  "zh": null,
  "country": "USA",
  "location_ja": null,
  "location_en": "Battle Creek, Michigan, USA",
  "lat": 42.2903965,
  "lng": -85.1575119,
  "map": "https://goo.gl/maps/KNY2H8TL7a52",
  "website": "https://binderparkzoo.org/",
  "logo": null,
  "aliases": []
 },
 {
  "canonical": "Biotropica Zoological Conservancy",
  "lineage_id": 169,
  "en": "Biotropica Zoological Conservancy",
  "zh": null,
  "country": "France",
  "location_ja": null,
  "location_en": "Val De Reuil, France",
  "lat": 49.2963564,
  "lng": 1.2038327,
  "map": "https://goo.gl/maps/9QVzLLC1yd12",
  "website": "https://biotropica.fr/",
  "logo": null,
  "aliases": []
 },
 {
  "canonical": "Birmingham Wildlife Conservation Park",
  "lineage_id": 275,
  "en": "Birmingham Wildlife Conservation Park",
  "zh": null,
  "country": "UK",
  "location_ja": null,
  "location_en": "Birmingham, United Kingdom",
  "lat": 52.4504402,
  "lng": -1.9124947,
  "map": "https://goo.gl/maps/qDs1qEEWhU6E3Pbq5",
  "website": "https://www.birmingham.gov.uk/conservationpark",
  "logo": null,
  "aliases": []
 },
 {
  "canonical": "Birmingham Zoo",
  "lineage_id": 187,
  "en": "Birmingham Zoo",
  "zh": null,
  "country": "USA",
  "location_ja": null,
  "location_en": "Birmingham, Alabama, USA",
  "lat": 33.4860087,
  "lng": -86.7839188,
  "map": "https://goo.gl/maps/zAQhPifo7Pm",
  "website": "https://www.birminghamzoo.com/",
  "logo": null,
  "aliases": []
 },
 {
  "canonical": "Blackpool Zoo",
  "lineage_id": 228,
  "en": "Blackpool Zoo",
  "zh": null,
  "country": "UK",
  "location_ja": null,
  "location_en": "Blackpool, UK",
  "lat": 53.8153431,
  "lng": -3.0163255,
  "map": "https://goo.gl/maps/VE9DGBQJt4RUsYTb9",
  "website": "https://www.blackpoolzoo.org.uk/",
  "logo": null,
  "aliases": []
 },
 {
  "canonical": "Blank Park Zoo",
  "lineage_id": 155,
  "en": "Blank Park Zoo",
  "zh": null,
  "country": "USA",
  "location_ja": null,
  "location_en": "Des Moines, Iowa, USA",
  "lat": 41.5207105,
  "lng": -93.62561,
  "map": "https://goo.gl/maps/KrqMWUznyA32",
  "website": "https://www.blankparkzoo.com/",
  "logo": null,
  "aliases": []
 },
 {
  "canonical": "Borås Zoo",
  "lineage_id": 293,
  "en": "Borås Zoo",
  "zh": null,
  "country": "Sweden",
  "location_ja": null,
  "location_en": "Borås, Sweden",
  "lat": 57.740822,
  "lng": 12.9392933,
  "map": "https://goo.gl/maps/1CpcMfGdLCVqyE3f6",
  "website": "https://www.borasdjurpark.se/",
  "logo": null,
  "aliases": []
 },
 {
  "canonical": "Brandywine Zoo",
  "lineage_id": 125,
  "en": "Brandywine Zoo",
  "zh": null,
  "country": "USA",
  "location_ja": null,
  "location_en": "Wilmington, Delaware, USA",
  "lat": 39.7582466,
  "lng": -75.5517247,
  "map": "https://goo.gl/maps/BbYuTcVJmVL2",
  "website": "https://brandywinezoo.org/",
  "logo": null,
  "aliases": []
 },
 {
  "canonical": "Brights Zoo",
  "lineage_id": 110,
  "en": "Brights Zoo",
  "zh": null,
  "country": "USA",
  "location_ja": null,
  "location_en": "Limestone, Tennessee, USA",
  "lat": 36.2546187,
  "lng": -82.6216489,
  "map": "https://goo.gl/maps/o1JzMwgEGPw",
  "website": "http://www.brightszoo.com/",
  "logo": null,
  "aliases": []
 },
 {
  "canonical": "Bristol Zoological Gardens",
  "lineage_id": 215,
  "en": "Bristol Zoological Gardens",
  "zh": null,
  "country": "UK",
  "location_ja": null,
  "location_en": "Bristol, UK",
  "lat": 51.4637269,
  "lng": -2.6241997,
  "map": "https://goo.gl/maps/y4LPjAf61fM5z3CT6",
  "website": "https://www.bristolzoo.org.uk",
  "logo": null,
  "aliases": []
 },
 {
  "canonical": "Bronx Zoo",
  "lineage_id": 48,
  "en": "Bronx Zoo",
  "zh": null,
  "country": "USA",
  "location_ja": null,
  "location_en": "Bronx, NY, USA",
  "lat": 40.8505989,
  "lng": -73.8791869,
  "map": "https://goo.gl/maps/YZZd8WbFQrA2",
  "website": "https://bronxzoo.com/",
  "logo": null,
  "aliases": []
 },
 {
  "canonical": "Brookfield Zoo",
  "lineage_id": 152,
  "en": "Brookfield Zoo",
  "zh": null,
  "country": "USA",
  "location_ja": null,
  "location_en": "Brookfield, Chicago, Illinois, USA",
  "lat": 41.8337869,
  "lng": -87.8380204,
  "map": "https://goo.gl/maps/Hek8arJZBUT2",
  "website": "https://www.czs.org/Brookfield-ZOO/Home",
  "logo": null,
  "aliases": []
 },
 {
  "canonical": "Budapest Zoo",
  "lineage_id": 265,
  "en": "Budapest Zoo",
  "zh": null,
  "country": "Hungary",
  "location_ja": null,
  "location_en": "Budapest, Hungary",
  "lat": 47.5189977,
  "lng": 19.0754546,
  "map": "https://goo.gl/maps/ZsFHZfHRNnEqZESq6",
  "website": "https://zoobudapest.com/",
  "logo": null,
  "aliases": []
 },
 {
  "canonical": "Buenos Aires Eco-Park",
  "lineage_id": 98,
  "en": "Buenos Aires Eco-Park",
  "zh": null,
  "country": "Argentina",
  "location_ja": null,
  "location_en": "Buenos Aires, Argentina",
  "lat": -34.5781333,
  "lng": -58.4853221,
  "map": "https://goo.gl/maps/LtEhMY2XMbJ2",
  "website": "http://www.buenosaires.gob.ar/ecoparque",
  "logo": null,
  "aliases": []
 },
 {
  "canonical": "Buffalo Zoo",
  "lineage_id": 188,
  "en": "Buffalo Zoo",
  "zh": null,
  "country": "USA",
  "location_ja": null,
  "location_en": "Buffalo, New York, USA",
  "lat": 42.9353009,
  "lng": -78.8619732,
  "map": "https://goo.gl/maps/3pjPqJH5rJp",
  "website": "https://buffalozoo.org/",
  "logo": null,
  "aliases": []
 },
 {
  "canonical": "Buttonwood Park Zoo",
  "lineage_id": 148,
  "en": "Buttonwood Park Zoo",
  "zh": null,
  "country": "USA",
  "location_ja": null,
  "location_en": "New Bedford, Massachusetts, USA",
  "lat": 41.6342426,
  "lng": -70.9577818,
  "map": "https://goo.gl/maps/wYU9QHq3FvS2",
  "website": "https://www.bpzoo.org/",
  "logo": null,
  "aliases": []
 },
 {
  "canonical": "Cape May County Park & Zoo",
  "lineage_id": 186,
  "en": "Cape May County Park & Zoo",
  "zh": null,
  "country": "USA",
  "location_ja": null,
  "location_en": "Middle Township, New Jersey, USA",
  "lat": 39.101968,
  "lng": -74.8134187,
  "map": "https://goo.gl/maps/vGHLYKq7jrK2",
  "website": "https://www.capemaycountynj.gov/1008/Park-Zoo",
  "logo": null,
  "aliases": []
 },
 {
  "canonical": "Capron Park Zoo",
  "lineage_id": 167,
  "en": "Capron Park Zoo",
  "zh": null,
  "country": "USA",
  "location_ja": null,
  "location_en": "Attleboro, Massachusetts, USA",
  "lat": 41.9376231,
  "lng": -71.3014633,
  "map": "https://goo.gl/maps/HkkkTA9xbaH2",
  "website": "https://capronparkzoo.com",
  "logo": null,
  "aliases": []
 },
 {
  "canonical": "Central Zoo",
  "lineage_id": 233,
  "en": "Central Zoo",
  "zh": null,
  "country": "Nepal",
  "location_ja": null,
  "location_en": "Lalitpur, Nepal",
  "lat": 27.672704,
  "lng": 85.307452,
  "map": "https://goo.gl/maps/gV2HHswq4LED2b7g9",
  "website": "https://ntnc.org.np/project/central-zoo",
  "logo": null,
  "aliases": []
 },
 {
  "canonical": "Chapultepec Zoo",
  "lineage_id": 66,
  "en": "Chapultepec Zoo",
  "zh": null,
  "country": "Mexico",
  "location_ja": null,
  "location_en": "Mexico City, Mexico",
  "lat": 19.4232135,
  "lng": -99.1917143,
  "map": "https://goo.gl/maps/FcdpEYXAYB12",
  "website": "http://data.sedema.cdmx.gob.mx/zoo_chapultepec/",
  "logo": null,
  "aliases": []
 },
 {
  "canonical": "Charles Paddock Zoo",
  "lineage_id": 129,
  "en": "Charles Paddock Zoo",
  "zh": null,
  "country": "USA",
  "location_ja": null,
  "location_en": "Atascadero, California, USA",
  "lat": 35.4693723,
  "lng": -120.6699343,
  "map": "https://goo.gl/maps/Keb1Sqgrmr92",
  "website": "http://www.charlespaddockzoo.org/",
  "logo": null,
  "aliases": []
 },
 {
  "canonical": "Chattanooga Zoo At Warner Park",
  "lineage_id": 112,
  "en": "Chattanooga Zoo At Warner Park",
  "zh": null,
  "country": "USA",
  "location_ja": null,
  "location_en": "Chattanooga, Tennessee, USA",
  "lat": 35.0426328,
  "lng": -85.2996084,
  "map": "https://goo.gl/maps/1ZHVrRkvvs12",
  "website": "http://www.chattzoo.org/",
  "logo": null,
  "aliases": []
 },
 {
  "canonical": "Chengdu Research Base of Giant Panda Breeding",
  "lineage_id": 195,
  "en": "Chengdu Research Base of Giant Panda Breeding",
  "zh": null,
  "country": "China",
  "location_ja": null,
  "location_en": "Chengdu, Sichuan, China",
  "lat": 30.7329687,
  "lng": 104.1370553,
  "map": "https://goo.gl/maps/DYBfNPLa9KAdbDtg7",
  "website": "http://www.panda.org.cn/",
  "logo": null,
  "aliases": []
 },
 {
  "canonical": "Chester Zoo",
  "lineage_id": 271,
  "en": "Chester Zoo",
  "zh": null,
  "country": "UK",
  "location_ja": null,
  "location_en": "Chester, United Kingdom",
  "lat": 53.227269,
  "lng": -2.8866001,
  "map": "https://goo.gl/maps/xaELJdQWK23LXbyS8",
  "website": "http://www.chesterzoo.org/",
  "logo": null,
  "aliases": []
 },
 {
  "canonical": "Chomutov Zoo",
  "lineage_id": 216,
  "en": "Chomutov Zoo",
  "zh": null,
  "country": "Czechia",
  "location_ja": null,
  "location_en": "Chomutov, Czechia",
  "lat": 50.4735253,
  "lng": 13.4180898,
  "map": "https://goo.gl/maps/bWdg8R2K2iGDbv48A",
  "website": "https://zoopark.cz/",
  "logo": null,
  "aliases": []
 },
 {
  "canonical": "Cleveland Metroparks Zoo",
  "lineage_id": 107,
  "en": "Cleveland Metroparks Zoo",
  "zh": null,
  "country": "USA",
  "location_ja": null,
  "location_en": "Cleveland, Ohio, USA",
  "lat": 41.4499591,
  "lng": -81.7133054,
  "map": "https://goo.gl/maps/H1Beh6XdftG2",
  "website": "https://www.clevelandmetroparks.com/zoo",
  "logo": null,
  "aliases": []
 },
 {
  "canonical": "Colchester Zoo",
  "lineage_id": 137,
  "en": "Colchester Zoo",
  "zh": null,
  "country": "UK",
  "location_ja": null,
  "location_en": "Colchester, UK",
  "lat": 51.8680513,
  "lng": 0.8314388,
  "map": "https://goo.gl/maps/JWJySzYiXeu",
  "website": "https://www.colchester-zoo.com/",
  "logo": null,
  "aliases": []
 },
 {
  "canonical": "Cologne Zoological Garden",
  "lineage_id": 294,
  "en": "Cologne Zoological Garden",
  "zh": null,
  "country": "Germany",
  "location_ja": null,
  "location_en": "Cologne, Germany",
  "lat": 50.9597901,
  "lng": 6.9717619,
  "map": "https://goo.gl/maps/9v8LQTCipUadTzrm8",
  "website": "https://www.koelnerzoo.de/",
  "logo": null,
  "aliases": []
 },
 {
  "canonical": "Connecticut's Beardsley Zoo",
  "lineage_id": 194,
  "en": "Connecticut's Beardsley Zoo",
  "zh": null,
  "country": "USA",
  "location_ja": null,
  "location_en": "Bridgeport, Connecticut, USA",
  "lat": 41.2134138,
  "lng": -73.1854623,
  "map": "https://goo.gl/maps/3HuKmw5RFecxBZQVA",
  "website": "https://www.beardsleyzoo.org/",
  "logo": null,
  "aliases": []
 },
 {
  "canonical": "Copenhagen Zoo",
  "lineage_id": 221,
  "en": "Copenhagen Zoo",
  "zh": null,
  "country": "Denmark",
  "location_ja": null,
  "location_en": "Frederiksberg, Denmark",
  "lat": 55.6724093,
  "lng": 12.5191694,
  "map": "https://goo.gl/maps/6rdiZg3VTyVDPAaj8",
  "website": "https://www.zoo.dk",
  "logo": null,
  "aliases": []
 },
 {
  "canonical": "Cotswold Wildlife Park and Gardens",
  "lineage_id": 226,
  "en": "Cotswold Wildlife Park and Gardens",
  "zh": null,
  "country": "UK",
  "location_ja": null,
  "location_en": "Burford, UK",
  "lat": 51.7739849,
  "lng": -1.6621836,
  "map": "https://goo.gl/maps/NnuiaLq7g7rbAokD7",
  "website": "https://www.cotswoldwildlifepark.co.uk/",
  "logo": null,
  "aliases": []
 },
 {
  "canonical": "Curraghs Wildlife Park",
  "lineage_id": 198,
  "en": "Curraghs Wildlife Park",
  "zh": null,
  "country": "Isle of Man",
  "location_ja": null,
  "location_en": "Isle of Man, UK",
  "lat": 54.3549219,
  "lng": -4.5140135,
  "map": "https://goo.gl/maps/PBz1vYfhq8yFiuu4A",
  "website": "http://www.curraghswildlifepark.im/",
  "logo": null,
  "aliases": []
 },
 {
  "canonical": "Currumbin Wildlife Sanctuary",
  "lineage_id": 242,
  "en": "Currumbin Wildlife Sanctuary",
  "zh": null,
  "country": "Australia",
  "location_ja": null,
  "location_en": "Currumbin, Queensland, Australia",
  "lat": -28.1366532,
  "lng": 153.4815552,
  "map": "https://goo.gl/maps/rR4QN6d69H9BbunZA",
  "website": "https://currumbinsanctuary.com.au/",
  "logo": null,
  "aliases": []
 },
 {
  "canonical": "Denver Zoological Gardens",
  "lineage_id": 131,
  "en": "Denver Zoological Gardens",
  "zh": null,
  "country": "USA",
  "location_ja": null,
  "location_en": "Denver, Colorado, USA",
  "lat": 39.7501641,
  "lng": -104.9664625,
  "map": "https://goo.gl/maps/hqG7y33Ttwj",
  "website": "https://www.denverzoo.org/",
  "logo": null,
  "aliases": []
 },
 {
  "canonical": "Detroit Zoological Society",
  "lineage_id": 124,
  "en": "Detroit Zoological Society",
  "zh": null,
  "country": "USA",
  "location_ja": null,
  "location_en": "Royal Oak, Michigan, USA",
  "lat": 42.4789751,
  "lng": -83.1561748,
  "map": "https://goo.gl/maps/TQARh1R38qP2",
  "website": "https://detroitzoo.org/",
  "logo": null,
  "aliases": []
 },
 {
  "canonical": "DierenPark Amersfoort",
  "lineage_id": 262,
  "en": "DierenPark Amersfoort",
  "zh": null,
  "country": "Netherlands",
  "location_ja": null,
  "location_en": "Amersfoort, Netherlands",
  "lat": 52.1518484,
  "lng": 5.33946,
  "map": "https://goo.gl/maps/cnSsGqhg5cmqMATg8",
  "website": "https://dierenparkamersfoort.nl/",
  "logo": null,
  "aliases": []
 },
 {
  "canonical": "Dortmund Zoo",
  "lineage_id": 230,
  "en": "Dortmund Zoo",
  "zh": null,
  "country": "Germany",
  "location_ja": null,
  "location_en": "Dortmund, Germany",
  "lat": 51.47366,
  "lng": 7.4595653,
  "map": "https://goo.gl/maps/zEg3Ajqj5pHTVP6c8",
  "website": "https://zoo.dortmund.de/",
  "logo": null,
  "aliases": []
 },
 {
  "canonical": "Drusillas Park",
  "lineage_id": 253,
  "en": "Drusillas Park",
  "zh": null,
  "country": "UK",
  "location_ja": null,
  "location_en": "East Sussex, UK",
  "lat": 50.8251049,
  "lng": 0.1589853,
  "map": "https://goo.gl/maps/55zSbqmhWQd4GvBC9",
  "website": "https://www.drusillas.co.uk/",
  "logo": null,
  "aliases": []
 },
 {
  "canonical": "Dublin Zoo",
  "lineage_id": 150,
  "en": "Dublin Zoo",
  "zh": null,
  "country": "Ireland",
  "location_ja": null,
  "location_en": "Dublin, Ireland",
  "lat": 53.3546178,
  "lng": -6.3055473,
  "map": "https://goo.gl/maps/GVkUXsqUBVw",
  "website": "https://www.dublinzoo.ie/",
  "logo": null,
  "aliases": []
 },
 {
  "canonical": "Dudley Zoological Gardens",
  "lineage_id": 197,
  "en": "Dudley Zoological Gardens",
  "zh": null,
  "country": "UK",
  "location_ja": null,
  "location_en": "Dudley, UK",
  "lat": 52.5136579,
  "lng": -2.0809638,
  "map": "https://goo.gl/maps/9zbBT4pE4bifKV4p6",
  "website": "https://www.dudleyzoo.org.uk/",
  "logo": null,
  "aliases": []
 },
 {
  "canonical": "Edinburgh Zoo",
  "lineage_id": 273,
  "en": "Edinburgh Zoo",
  "zh": null,
  "country": "UK",
  "location_ja": null,
  "location_en": "Edinburgh, United Kingdom",
  "lat": 55.9423649,
  "lng": -3.2707825,
  "map": "https://g.page/RZSSEdinburghZoo",
  "website": "https://www.edinburghzoo.org.uk/",
  "logo": null,
  "aliases": []
 },
 {
  "canonical": "Elmwood Park Zoo",
  "lineage_id": 132,
  "en": "Elmwood Park Zoo",
  "zh": null,
  "country": "USA",
  "location_ja": null,
  "location_en": "Norristown, Pennsylvania, USA",
  "lat": 40.1328221,
  "lng": -75.3452331,
  "map": "https://goo.gl/maps/CknzKshwgbM2",
  "website": "https://www.elmwoodparkzoo.org/",
  "logo": null,
  "aliases": []
 },
 {
  "canonical": "Erie Zoological Gardens",
  "lineage_id": 141,
  "en": "Erie Zoological Gardens",
  "zh": null,
  "country": "USA",
  "location_ja": null,
  "location_en": "Erie, Pennsylvania, USA",
  "lat": 42.0972671,
  "lng": -80.0826931,
  "map": "https://goo.gl/maps/2JCNCyxMFZ32",
  "website": "https://www.eriezoo.org/",
  "logo": null,
  "aliases": []
 },
 {
  "canonical": "Flamingo Land and Resort",
  "lineage_id": 227,
  "en": "Flamingo Land and Resort",
  "zh": null,
  "country": "UK",
  "location_ja": null,
  "location_en": "Malton, UK",
  "lat": 54.20677,
  "lng": -0.8131384,
  "map": "https://goo.gl/maps/rrXWs3e3TfoHah1BA",
  "website": "https://www.flamingoland.co.uk/",
  "logo": null,
  "aliases": []
 },
 {
  "canonical": "Fort Wayne Children's Zoo",
  "lineage_id": 123,
  "en": "Fort Wayne Children's Zoo",
  "zh": null,
  "country": "USA",
  "location_ja": null,
  "location_en": "Fort Wayne, Indiana, USA",
  "lat": 41.1096716,
  "lng": -85.1571732,
  "map": "https://goo.gl/maps/s6yrZhQmjR72",
  "website": "https://kidszoo.org/",
  "logo": null,
  "aliases": []
 },
 {
  "canonical": "Fota Wildlife Park",
  "lineage_id": 174,
  "en": "Fota Wildlife Park",
  "zh": null,
  "country": "Ireland",
  "location_ja": null,
  "location_en": "Carrigtwohill, County Cork, Ireland",
  "lat": 51.8917076,
  "lng": -8.3116182,
  "map": "https://goo.gl/maps/etfG2zGm1MM2",
  "website": "https://www.fotawildlife.ie/",
  "logo": null,
  "aliases": []
 },
 {
  "canonical": "Galloway Wildlife Conservation Park",
  "lineage_id": 250,
  "en": "Galloway Wildlife Conservation Park",
  "zh": null,
  "country": "UK",
  "location_ja": null,
  "location_en": "Kirkcudbright, Scotland, United Kingdom",
  "lat": 54.840836,
  "lng": -4.0421598,
  "map": "https://goo.gl/maps/MqGgMpb8k8pourGK9",
  "website": "https://www.facebook.com/gallowaywildlife/",
  "logo": null,
  "aliases": []
 },
 {
  "canonical": "Gdansk Zoo",
  "lineage_id": 168,
  "en": "Gdansk Zoo",
  "zh": null,
  "country": "Poland",
  "location_ja": null,
  "location_en": "Gdansk, Pomeranian Voivodship, Poland",
  "lat": 54.4133478,
  "lng": 18.5396396,
  "map": "https://goo.gl/maps/fxbCMekzzCT2",
  "website": "https://zoo.gda.pl/",
  "logo": null,
  "aliases": []
 },
 {
  "canonical": "Givskud Zoo",
  "lineage_id": 269,
  "en": "Givskud Zoo",
  "zh": null,
  "country": "Denmark",
  "location_ja": null,
  "location_en": "Give, Denmark",
  "lat": 55.8088833,
  "lng": 9.3471572,
  "map": "https://g.page/givskud-zoo-zootopia",
  "website": "https://www.givskudzoo.dk/",
  "logo": null,
  "aliases": []
 },
 {
  "canonical": "Granby Zoo",
  "lineage_id": 94,
  "en": "Granby Zoo",
  "zh": null,
  "country": "Canada",
  "location_ja": null,
  "location_en": "Granby, Quebec, Canada",
  "lat": 45.4197484,
  "lng": -72.7230226,
  "map": "https://goo.gl/maps/E9eNEDvNPj72",
  "website": "https://zoodegranby.com/",
  "logo": null,
  "aliases": []
 },
 {
  "canonical": "Great Plains Zoo",
  "lineage_id": 119,
  "en": "Great Plains Zoo",
  "zh": null,
  "country": "USA",
  "location_ja": null,
  "location_en": "Sioux Falls, South Dakota, USA",
  "lat": 43.5443975,
  "lng": -96.7804659,
  "map": "https://goo.gl/maps/cDksLi3ecVF2",
  "website": "https://greatzoo.org/",
  "logo": null,
  "aliases": []
 },
 {
  "canonical": "Greater Vancouver Zoo",
  "lineage_id": 86,
  "en": "Greater Vancouver Zoo",
  "zh": null,
  "country": "Canada",
  "location_ja": null,
  "location_en": "Vancouver, British Columbia, Canada",
  "lat": 49.1238474,
  "lng": -122.8687328,
  "map": "https://goo.gl/maps/TxXkYjME52C2",
  "website": "https://gvzoo.com/",
  "logo": null,
  "aliases": []
 },
 {
  "canonical": "Greensboro Science Center",
  "lineage_id": 99,
  "en": "Greensboro Science Center",
  "zh": null,
  "country": "USA",
  "location_ja": null,
  "location_en": "Greensboro, North Carolina, USA",
  "lat": 36.1298984,
  "lng": -79.8691369,
  "map": "https://goo.gl/maps/8Ecg8V5hWMz",
  "website": "http://www.greensboroscience.org/",
  "logo": null,
  "aliases": []
 },
 {
  "canonical": "Greenville Zoo",
  "lineage_id": 118,
  "en": "Greenville Zoo",
  "zh": null,
  "country": "USA",
  "location_ja": null,
  "location_en": "Greenville, South Carolina, USA",
  "lat": 34.8499627,
  "lng": -82.3941174,
  "map": "https://goo.gl/maps/yBWpJYm1Bvr",
  "website": "https://greenvillezoo.com/",
  "logo": null,
  "aliases": []
 },
 {
  "canonical": "Guangzhou Zoo",
  "lineage_id": 297,
  "en": "Guangzhou Zoo",
  "zh": null,
  "country": "China",
  "location_ja": "Guangzhou, Guangdong, China",
  "location_en": "Guangzhou, Guangdong, China",
  "lat": 23.1389748,
  "lng": 113.3008411,
  "map": "https://goo.gl/maps/b2Uh3e25cz1iz1eZ8",
  "website": "https://www.gzzoo.com/service.aspx",
  "logo": null,
  "aliases": []
 },
 {
  "canonical": "Görlitz Zoo",
  "lineage_id": 138,
  "en": "Görlitz Zoo",
  "zh": null,
  "country": "Germany",
  "location_ja": null,
  "location_en": "Gorlitz, Germany",
  "lat": 51.1425184,
  "lng": 14.9613021,
  "map": "https://goo.gl/maps/xgBoW6RyMht",
  "website": "https://www.tierpark-goerlitz.de/de/",
  "logo": null,
  "aliases": []
 },
 {
  "canonical": "Halls Gap Zoo",
  "lineage_id": 255,
  "en": "Halls Gap Zoo",
  "zh": null,
  "country": "Australia",
  "location_ja": null,
  "location_en": "Halls Gap, Victoria, Australia",
  "lat": -37.1443729,
  "lng": 142.5603087,
  "map": "https://g.page/hallsgapzoo?share",
  "website": "https://hallsgapzoo.com.au/",
  "logo": null,
  "aliases": []
 },
 {
  "canonical": "Hamilton Zoo",
  "lineage_id": 201,
  "en": "Hamilton Zoo",
  "zh": null,
  "country": "New Zealand",
  "location_ja": null,
  "location_en": "Baverstock, Hamilton, New Zealand",
  "lat": -37.7749257,
  "lng": 175.2137653,
  "map": "https://g.page/HamiltonZooNZ?share",
  "website": "https://hamiltonzoo.co.nz/",
  "logo": null,
  "aliases": []
 },
 {
  "canonical": "Hangzhou Zoo",
  "lineage_id": 236,
  "en": "Hangzhou Zoo",
  "zh": null,
  "country": "China",
  "location_ja": null,
  "location_en": "Hangzhou, Zhejiang, China",
  "lat": 30.213737,
  "lng": 120.1249143,
  "map": "https://goo.gl/maps/UTyFC8HCPycgveWz6",
  "website": "http://www.hzzoo.com/",
  "logo": null,
  "aliases": []
 },
 {
  "canonical": "Hanover Adventure Zoo",
  "lineage_id": 286,
  "en": "Hanover Adventure Zoo",
  "zh": null,
  "country": "Germany",
  "location_ja": null,
  "location_en": "Hannover, Germany",
  "lat": 52.3817392,
  "lng": 9.7669346,
  "map": "https://goo.gl/maps/byxH1R4wsmukCRVPA",
  "website": "https://www.zoo-hannover.de/",
  "logo": null,
  "aliases": []
 },
 {
  "canonical": "Happy Hollow Park & Zoo",
  "lineage_id": 47,
  "en": "Happy Hollow Park & Zoo",
  "zh": null,
  "country": "USA",
  "location_ja": null,
  "location_en": "San Jose, California, USA",
  "lat": 37.325749,
  "lng": -121.8635721,
  "map": "https://goo.gl/maps/pXaxYuZQwYH2",
  "website": "http://www.hhpz.org/",
  "logo": null,
  "aliases": []
 },
 {
  "canonical": "Haute Touche Zoological Park",
  "lineage_id": 278,
  "en": "Haute Touche Zoological Park",
  "zh": null,
  "country": "France",
  "location_ja": null,
  "location_en": "Obterre, France",
  "lat": 46.8769973,
  "lng": 1.0916611,
  "map": "https://goo.gl/maps/2w7V2XMGzmUokoAbA",
  "website": "http://www.zoodelahautetouche.fr/",
  "logo": null,
  "aliases": []
 },
 {
  "canonical": "Hellabrunn Zoo",
  "lineage_id": 282,
  "en": "Hellabrunn Zoo",
  "zh": null,
  "country": "Germany",
  "location_ja": null,
  "location_en": "Munich, Germany",
  "lat": 48.0969444,
  "lng": 11.5517002,
  "map": "https://goo.gl/maps/iwfuHzr2sLkYR7ZX6",
  "website": "https://www.hellabrunn.de/",
  "logo": null,
  "aliases": []
 },
 {
  "canonical": "Hemker Wildlife Park",
  "lineage_id": 156,
  "en": "Hemker Wildlife Park",
  "zh": null,
  "country": "USA",
  "location_ja": null,
  "location_en": "Freeport, Minnesota, USA",
  "lat": 45.671764,
  "lng": -94.6690183,
  "map": "https://goo.gl/maps/ngFHxdLvtVG2",
  "website": "https://www.hemkerzoo.com",
  "logo": null,
  "aliases": []
 },
 {
  "canonical": "Hertfordshire Zoo",
  "lineage_id": 214,
  "en": "Hertfordshire Zoo",
  "zh": null,
  "country": "UK",
  "location_ja": null,
  "location_en": "Broxbourne EN10 7QA, UK",
  "lat": 51.744107,
  "lng": -0.062245,
  "map": "https://goo.gl/maps/yWTa37REWi5tVfFj9",
  "website": "https://www.pwpark.com/",
  "logo": null,
  "aliases": []
 },
 {
  "canonical": "Highland Wildlife Park",
  "lineage_id": 213,
  "en": "Highland Wildlife Park",
  "zh": null,
  "country": "UK",
  "location_ja": null,
  "location_en": "Kincraig, Kingussie, UK",
  "lat": 57.107387,
  "lng": -3.975564,
  "map": "https://goo.gl/maps/KvuR8LteYU21mHPj6",
  "website": "https://www.highlandwildlifepark.org.uk/animals-attractions/animals/red-panda/",
  "logo": null,
  "aliases": []
 },
 {
  "canonical": "Hogle Zoo",
  "lineage_id": 165,
  "en": "Hogle Zoo",
  "zh": null,
  "country": "USA",
  "location_ja": null,
  "location_en": "Salt Lake City, Utah, USA",
  "lat": 40.7501811,
  "lng": -111.8162915,
  "map": "https://goo.gl/maps/6rWGbpuKQap",
  "website": "https://www.hoglezoo.org",
  "logo": null,
  "aliases": []
 },
 {
  "canonical": "Hongshan Forest Zoo",
  "lineage_id": 302,
  "en": "Hongshan Forest Zoo",
  "zh": null,
  "country": "China",
  "location_ja": "Xuanwu, Nanjing, China",
  "location_en": "Xuanwu, Nanjing, China",
  "lat": 32.091625,
  "lng": 118.7998383,
  "map": "https://goo.gl/maps/WeoipsC5itJNqJQe7",
  "website": "unknown",
  "logo": null,
  "aliases": []
 },
 {
  "canonical": "Houston Zoo",
  "lineage_id": 88,
  "en": "Houston Zoo",
  "zh": null,
  "country": "USA",
  "location_ja": null,
  "location_en": "Houston, Texas, USA",
  "lat": 29.7226492,
  "lng": -95.3884739,
  "map": "https://goo.gl/maps/LKkAW38D8Pz",
  "website": "https://www.houstonzoo.org/",
  "logo": null,
  "aliases": []
 },
 {
  "canonical": "Idaho Falls Zoo at Tautphaus Park",
  "lineage_id": 166,
  "en": "Idaho Falls Zoo at Tautphaus Park",
  "zh": null,
  "country": "USA",
  "location_ja": null,
  "location_en": "Idaho Falls, Idaho, USA",
  "lat": 43.472089,
  "lng": -112.0464874,
  "map": "https://goo.gl/maps/L9LEZRj1VcS2",
  "website": "https://www.idahofallsidaho.gov/1230/Zoo",
  "logo": null,
  "aliases": []
 },
 {
  "canonical": "Indianapolis Zoo",
  "lineage_id": 158,
  "en": "Indianapolis Zoo",
  "zh": null,
  "country": "USA",
  "location_ja": null,
  "location_en": "Indianapolis, Indiana, USA",
  "lat": 39.767442,
  "lng": -86.1829187,
  "map": "https://goo.gl/maps/XzhaiFMGTE42",
  "website": "https://www.indianapoliszoo.com",
  "logo": null,
  "aliases": []
 },
 {
  "canonical": "Jackson Zoological Park",
  "lineage_id": 162,
  "en": "Jackson Zoological Park",
  "zh": null,
  "country": "USA",
  "location_ja": null,
  "location_en": "Jackson, Mississippi, USA",
  "lat": 32.3200276,
  "lng": -90.2267222,
  "map": "https://goo.gl/maps/WfAcCW6qSpx",
  "website": "https://jacksonzoo.org/",
  "logo": null,
  "aliases": []
 },
 {
  "canonical": "Jinan Wild World",
  "lineage_id": 298,
  "en": "Jinan Wild World",
  "zh": null,
  "country": "China",
  "location_ja": "济南市山东省中国",
  "location_en": "Jinan, Shangdong, China",
  "lat": 36.5301511,
  "lng": 117.191337,
  "map": "https://goo.gl/maps/cotZm595MgTzTAK59",
  "website": "unknown",
  "logo": null,
  "aliases": []
 },
 {
  "canonical": "John Ball Zoo",
  "lineage_id": 111,
  "en": "John Ball Zoo",
  "zh": null,
  "country": "USA",
  "location_ja": null,
  "location_en": "Grand Rapids, Michigan, USA",
  "lat": 42.9616041,
  "lng": -85.7209277,
  "map": "https://goo.gl/maps/3gKq7TKsyQT2",
  "website": "https://www.jbzoo.org/",
  "logo": null,
  "aliases": []
 },
 {
  "canonical": "Jurques Zoo",
  "lineage_id": 311,
  "en": "Jurques Zoo",
  "zh": null,
  "country": "France",
  "location_ja": null,
  "location_en": "Dialan sur Chaîne, France",
  "lat": 49.0037365,
  "lng": -0.7533139,
  "map": "https://goo.gl/maps/johcwm293jsUPERM8",
  "website": "https://www.zoodejurques.fr/",
  "logo": null,
  "aliases": []
 },
 {
  "canonical": "Jászberény Zoo",
  "lineage_id": 220,
  "en": "Jászberény Zoo",
  "zh": null,
  "country": "Hungary",
  "location_ja": null,
  "location_en": "Jászberény, Hungary",
  "lat": 47.493309,
  "lng": 19.8662863,
  "map": "https://goo.gl/maps/bmY8bmrZ8uFLq83p7",
  "website": "hhttps://jaszberenyzoo.hu/",
  "logo": null,
  "aliases": []
 },
 {
  "canonical": "Kansas City Zoo",
  "lineage_id": 115,
  "en": "Kansas City Zoo",
  "zh": null,
  "country": "USA",
  "location_ja": null,
  "location_en": "Kansas City, Missouri, USA",
  "lat": 39.0107198,
  "lng": -94.5420088,
  "map": "https://goo.gl/maps/4NYWrwy6CpT2",
  "website": "https://www.kansascityzoo.org/",
  "logo": null,
  "aliases": []
 },
 {
  "canonical": "Chiang Mai Zoo",
  "lineage_id": null,
  "en": "Chiang Mai Zoo",
  "zh": "清邁動物園",
  "country": "Thailand",
  "location_ja": null,
  "location_en": "Mueang Chiang Mai, Chiang Mai, Thailand",
  "lat": null,
  "lng": null,
  "map": null,
  "website": "https://chiangmai.zoothailand.org/",
  "logo": null,
  "aliases": []
 },
 {
  "canonical": "Khao Kheow Open Zoo",
  "lineage_id": 100,
  "en": "Khao Kheow Open Zoo",
  "zh": "考奇歐開放動物園",
  "country": "Thailand",
  "location_ja": null,
  "location_en": "Si Racha, Chon Buri, Thailand",
  "lat": 13.2148627,
  "lng": 100.9866786,
  "map": "https://goo.gl/maps/QRi8XP3ynNU2",
  "website": "https://khaokheow.zoothailand.org/",
  "logo": null,
  "aliases": []
 },
 {
  "canonical": "Kolmården Wildlife Park",
  "lineage_id": 246,
  "en": "Kolmården Wildlife Park",
  "zh": null,
  "country": "Sweden",
  "location_ja": null,
  "location_en": "Bråviken Bay, Norrköping, Sweden",
  "lat": 58.6640632,
  "lng": 16.4471131,
  "map": "https://goo.gl/maps/JNjPxjqkqf1qzzUR9",
  "website": "https://www.kolmarden.com/",
  "logo": null,
  "aliases": []
 },
 {
  "canonical": "Lake Superior Zoo",
  "lineage_id": 310,
  "en": "Lake Superior Zoo",
  "zh": null,
  "country": "USA",
  "location_ja": null,
  "location_en": "Duluth, Minnesota, USA",
  "lat": 46.725798,
  "lng": -92.190494,
  "map": "https://goo.gl/maps/4ZtDkGmBokoPHsob6",
  "website": "https://lszooduluth.org/",
  "logo": null,
  "aliases": []
 },
 {
  "canonical": "Lee Richardson Zoo",
  "lineage_id": 126,
  "en": "Lee Richardson Zoo",
  "zh": null,
  "country": "USA",
  "location_ja": null,
  "location_en": "Garden City, Kansas, USA",
  "lat": 37.9609497,
  "lng": -100.8766584,
  "map": "https://goo.gl/maps/xcMi2rcWTLR2",
  "website": "http://leerichardsonzoo.org/",
  "logo": null,
  "aliases": []
 },
 {
  "canonical": "Liberec Zoo",
  "lineage_id": 304,
  "en": "Liberec Zoo",
  "zh": null,
  "country": "Czechia",
  "location_ja": null,
  "location_en": "Liberec, Czechia",
  "lat": 50.7777838,
  "lng": 15.0810931,
  "map": "https://goo.gl/maps/mi1tghpUJXYGJQcr7",
  "website": "https://www.zooliberec.cz/",
  "logo": null,
  "aliases": []
 },
 {
  "canonical": "Lincoln Park Zoo",
  "lineage_id": 87,
  "en": "Lincoln Park Zoo",
  "zh": null,
  "country": "USA",
  "location_ja": null,
  "location_en": "Chicago, Illinois, USA",
  "lat": 41.9211024,
  "lng": -87.6509837,
  "map": "https://goo.gl/maps/HadVPFE1zaq",
  "website": "https://www.lpzoo.org/",
  "logo": null,
  "aliases": []
 },
 {
  "canonical": "Linz Zoo",
  "lineage_id": 268,
  "en": "Linz Zoo",
  "zh": null,
  "country": "Austria",
  "location_ja": null,
  "location_en": "Linz, Austria",
  "lat": 48.31056,
  "lng": 14.2611153,
  "map": "https://g.page/zoolinz",
  "website": "https://www.zoo-linz.at/",
  "logo": null,
  "aliases": []
 },
 {
  "canonical": "Lisbon Zoo",
  "lineage_id": 280,
  "en": "Lisbon Zoo",
  "zh": null,
  "country": "Portugal",
  "location_ja": null,
  "location_en": "Lisbon, Portugal",
  "lat": 38.7443615,
  "lng": -9.1729059,
  "map": "https://goo.gl/maps/T7DBfWDyEdNGSpQ27",
  "website": "https://www.zoo.pt/",
  "logo": null,
  "aliases": []
 },
 {
  "canonical": "Lodz Zoo",
  "lineage_id": 256,
  "en": "Lodz Zoo",
  "zh": null,
  "country": "Poland",
  "location_ja": null,
  "location_en": "Lodz, Poland",
  "lat": 51.7637468,
  "lng": 19.4058675,
  "map": "https://goo.gl/maps/9fb7HorSUqth5w5L7",
  "website": "https://www.zoo.lodz.pl/",
  "logo": null,
  "aliases": []
 },
 {
  "canonical": "Longleat Safari Park",
  "lineage_id": 211,
  "en": "Longleat Safari Park",
  "zh": null,
  "country": "UK",
  "location_ja": null,
  "location_en": "Longleat, Warminster, UK",
  "lat": 51.1897842,
  "lng": null,
  "map": "https://goo.gl/maps/iagRwW2Qd9i8DxPN9",
  "website": "https://www.longleat.co.uk/animals/red-panda",
  "logo": null,
  "aliases": []
 },
 {
  "canonical": "Loro Park",
  "lineage_id": 245,
  "en": "Loro Park",
  "zh": null,
  "country": "Spain",
  "location_ja": null,
  "location_en": "Santa Cruz de Tenerife, Canary Islands, Spain",
  "lat": 28.4094027,
  "lng": -16.5667087,
  "map": "https://goo.gl/maps/yvwysne8Kms1Pubt6",
  "website": "https://www.loroparque.com",
  "logo": null,
  "aliases": []
 },
 {
  "canonical": "Luang Prabang Wildlife Sanctuary",
  "lineage_id": 309,
  "en": "Luang Prabang Wildlife Sanctuary",
  "zh": null,
  "country": "Laos",
  "location_ja": null,
  "location_en": "Luang Prabang, Laos",
  "lat": 19.8856109,
  "lng": 102.1106252,
  "map": "https://goo.gl/maps/WSyNu7HFhH42",
  "website": "https://www.freethebears.org",
  "logo": null,
  "aliases": []
 },
 {
  "canonical": "Manor Wildlife Park",
  "lineage_id": 313,
  "en": "Manor Wildlife Park",
  "zh": null,
  "country": "UK",
  "location_ja": null,
  "location_en": "St Florence, UK",
  "lat": 51.6881815,
  "lng": -4.765755,
  "map": "https://goo.gl/maps/ifFdUTpuTFmiHcVq7",
  "website": "http://www.manorwildlifepark.co.uk/",
  "logo": null,
  "aliases": []
 },
 {
  "canonical": "Marwell Zoo",
  "lineage_id": 315,
  "en": "Marwell Zoo",
  "zh": null,
  "country": "UK",
  "location_ja": null,
  "location_en": "Winchester, Hampshire, UK",
  "lat": 50.9920259,
  "lng": -1.3064151,
  "map": "https://maps.app.goo.gl/E5jV1nWPYr5RKQku9",
  "website": "https://www.marwell.org.uk/",
  "logo": null,
  "aliases": []
 },
 {
  "canonical": "Memphis Zoo",
  "lineage_id": 109,
  "en": "Memphis Zoo",
  "zh": null,
  "country": "USA",
  "location_ja": null,
  "location_en": "Memphis, Tennessee, USA",
  "lat": 35.1500677,
  "lng": -90.0118466,
  "map": "https://goo.gl/maps/nQy82rrLbm32",
  "website": "https://memphiszoo.org/",
  "logo": null,
  "aliases": []
 },
 {
  "canonical": "Mesker Park Zoo",
  "lineage_id": 153,
  "en": "Mesker Park Zoo",
  "zh": null,
  "country": "USA",
  "location_ja": null,
  "location_en": "Evansville, Indiana, USA",
  "lat": 37.9960526,
  "lng": -87.6160525,
  "map": "https://goo.gl/maps/PXc9L33BQgS2",
  "website": "https://www.meskerparkzoo.com/",
  "logo": null,
  "aliases": []
 },
 {
  "canonical": "Mill Mountain Zoo",
  "lineage_id": 122,
  "en": "Mill Mountain Zoo",
  "zh": null,
  "country": "USA",
  "location_ja": null,
  "location_en": "Roanoke, Virginia, USA",
  "lat": 37.2516404,
  "lng": -79.9579239,
  "map": "https://goo.gl/maps/npzDkr2388w",
  "website": "http://www.mmzoo.org/",
  "logo": null,
  "aliases": []
 },
 {
  "canonical": "Miller Park Zoo",
  "lineage_id": 116,
  "en": "Miller Park Zoo",
  "zh": null,
  "country": "USA",
  "location_ja": null,
  "location_en": "Bloomington, Illinois, USA",
  "lat": 40.4696537,
  "lng": -89.0115789,
  "map": "https://goo.gl/maps/k6zARq4schp",
  "website": "http://www.bloomingtonparks.org/facilities/miller-park-zoo",
  "logo": null,
  "aliases": []
 },
 {
  "canonical": "Milwaukee County Zoo",
  "lineage_id": 93,
  "en": "Milwaukee County Zoo",
  "zh": null,
  "country": "USA",
  "location_ja": null,
  "location_en": "Milwaukee, Wisconsin, USA",
  "lat": 43.026838,
  "lng": -88.0504021,
  "map": "https://goo.gl/maps/pagD2rWWvY12",
  "website": "http://www.milwaukeezoo.org/",
  "logo": null,
  "aliases": []
 },
 {
  "canonical": "Minnesota Zoological Garden",
  "lineage_id": 101,
  "en": "Minnesota Zoological Garden",
  "zh": null,
  "country": "USA",
  "location_ja": null,
  "location_en": "Apple Valley, Minnesota, USA",
  "lat": 44.7678109,
  "lng": -93.2054319,
  "map": "https://goo.gl/maps/ZdJu1mLMXFu",
  "website": "http://www.mnzoo.org/",
  "logo": null,
  "aliases": []
 },
 {
  "canonical": "Moscow Zoo",
  "lineage_id": 149,
  "en": "Moscow Zoo",
  "zh": null,
  "country": "Russia",
  "location_ja": null,
  "location_en": "Moscow, Russia",
  "lat": 55.7641493,
  "lng": 37.5674998,
  "map": "https://goo.gl/maps/KR9xSj6sJfu",
  "website": "https://moscowzoo.ru",
  "logo": null,
  "aliases": []
 },
 {
  "canonical": "Ménagerie, le zoo du Jardin des Plantes",
  "lineage_id": 247,
  "en": "Ménagerie, le zoo du Jardin des Plantes",
  "zh": null,
  "country": "France",
  "location_ja": null,
  "location_en": "Paris, France",
  "lat": 48.8453312,
  "lng": 2.3554294,
  "map": "https://goo.gl/maps/staFU88NvAL45syj6",
  "website": "https://www.jardindesplantesdeparis.fr/fr/programme/galeries-jardins-zoo-bibliotheques/menagerie-zoo-jardin-plantes-2765",
  "logo": null,
  "aliases": []
 },
 {
  "canonical": "Nashville Zoo at Grassmere",
  "lineage_id": 90,
  "en": "Nashville Zoo at Grassmere",
  "zh": null,
  "country": "USA",
  "location_ja": null,
  "location_en": "Nashville, Tennesesee",
  "lat": 36.0917091,
  "lng": -86.738922,
  "map": "https://goo.gl/maps/6KdEKAFz5Sy",
  "website": "https://www.nashvillezoo.org/",
  "logo": null,
  "aliases": []
 },
 {
  "canonical": "National Zoo & Aquarium",
  "lineage_id": 202,
  "en": "National Zoo & Aquarium",
  "zh": null,
  "country": "Australia",
  "location_ja": null,
  "location_en": "Yarralumla, Australian Capital Territory, Australia",
  "lat": -35.2988266,
  "lng": 149.0681533,
  "map": "https://g.page/CanberraZoo",
  "website": "https://nationalzoo.com.au/",
  "logo": null,
  "aliases": []
 },
 {
  "canonical": "National Zoological Park",
  "lineage_id": 49,
  "en": "National Zoological Park",
  "zh": null,
  "country": "USA",
  "location_ja": null,
  "location_en": "Washington, DC, USA",
  "lat": 38.9296198,
  "lng": -77.0519731,
  "map": "https://goo.gl/maps/g8NQQHL5Qqw",
  "website": "https://nationalzoo.si.edu/",
  "logo": null,
  "aliases": []
 },
 {
  "canonical": "Natura Viva Zoo",
  "lineage_id": 257,
  "en": "Natura Viva Zoo",
  "zh": null,
  "country": "Italy",
  "location_ja": null,
  "location_en": "Province of Verona, Italy",
  "lat": 45.4798393,
  "lng": 10.7962922,
  "map": "https://g.page/parco-natura-viva-bussolengo?share",
  "website": "https://www.parconaturaviva.it/",
  "logo": null,
  "aliases": []
 },
 {
  "canonical": "Nordens Ark Zoo",
  "lineage_id": 266,
  "en": "Nordens Ark Zoo",
  "zh": null,
  "country": "Sweden",
  "location_ja": null,
  "location_en": "Hunnebostrand, Sweden",
  "lat": 58.4416852,
  "lng": 11.4344176,
  "map": "https://goo.gl/maps/zhMg7XWZzRs9vsz96",
  "website": "https://en.nordensark.se/",
  "logo": null,
  "aliases": []
 },
 {
  "canonical": "Nyiregyhaza Animal Park",
  "lineage_id": 172,
  "en": "Nyiregyhaza Animal Park",
  "zh": null,
  "country": "Hungary",
  "location_ja": null,
  "location_en": "Sóstó, Nyíregyháza, Hungary",
  "lat": 48.0015172,
  "lng": 21.7210297,
  "map": "https://goo.gl/maps/tkNhRWbQbuK2",
  "website": "https://www.sostozoo.hu/",
  "logo": null,
  "aliases": []
 },
 {
  "canonical": "Oakhill Center for Rare and Endangered Species",
  "lineage_id": 192,
  "en": "Oakhill Center for Rare and Endangered Species",
  "zh": null,
  "country": "USA",
  "location_ja": null,
  "location_en": "Luther, Oklahoma, USA",
  "lat": 45.513208,
  "lng": -122.7186569,
  "map": "none",
  "website": "http://www.oakhillcenter.org/index.htm",
  "logo": null,
  "aliases": []
 },
 {
  "canonical": "Ocean Park Hong Kong",
  "lineage_id": 196,
  "en": "Ocean Park Hong Kong",
  "zh": null,
  "country": "Hong Kong",
  "location_ja": null,
  "location_en": "Aberdeen, Hong Kong, China",
  "lat": 22.2466457,
  "lng": 114.1056835,
  "map": "https://goo.gl/maps/cyhJE1HGhYUayvBv7",
  "website": "https://www.oceanpark.com.hk/tc",
  "logo": null,
  "aliases": []
 },
 {
  "canonical": "Odense Zoo",
  "lineage_id": 312,
  "en": "Odense Zoo",
  "zh": null,
  "country": "Denmark",
  "location_ja": null,
  "location_en": "Odense, Denmark",
  "lat": 55.3779965,
  "lng": 10.3731553,
  "map": "https://goo.gl/maps/W126X6i9h1rbWM9H7",
  "website": "https://www.odensezoo.dk/",
  "logo": null,
  "aliases": []
 },
 {
  "canonical": "Oglebay's Good Children's Zoo",
  "lineage_id": 163,
  "en": "Oglebay's Good Children's Zoo",
  "zh": null,
  "country": "USA",
  "location_ja": null,
  "location_en": "Wheeling, West Virginia, USA",
  "lat": 40.0978967,
  "lng": -80.684688,
  "map": "https://goo.gl/maps/ukUtxiWC6CR2",
  "website": "https://oglebay.com/good-zoo/",
  "logo": null,
  "aliases": []
 },
 {
  "canonical": "Oklahoma City Zoo",
  "lineage_id": 146,
  "en": "Oklahoma City Zoo",
  "zh": null,
  "country": "USA",
  "location_ja": null,
  "location_en": "Oklahoma City, Oklahoma, USA",
  "lat": 35.5216262,
  "lng": -97.4705582,
  "map": "https://goo.gl/maps/C9iJrLceqQs",
  "website": "https://www.okczoo.org/",
  "logo": null,
  "aliases": []
 },
 {
  "canonical": "Omaha's Henry Doorly Zoo",
  "lineage_id": 178,
  "en": "Omaha's Henry Doorly Zoo",
  "zh": null,
  "country": "USA",
  "location_ja": null,
  "location_en": "Omaha, Nebraska, USA",
  "lat": 41.2251159,
  "lng": -95.9317282,
  "map": "https://goo.gl/maps/L7o286QhDPM2",
  "website": "http://www.omahazoo.com/",
  "logo": null,
  "aliases": []
 },
 {
  "canonical": "Oregon Zoo",
  "lineage_id": 191,
  "en": "Oregon Zoo",
  "zh": null,
  "country": "USA",
  "location_ja": null,
  "location_en": "Portland, Oregon, USA",
  "lat": 45.513208,
  "lng": -122.7186569,
  "map": "https://goo.gl/maps/seUShhuCwpSSk8uTA",
  "website": "https://www.oregonzoo.org/",
  "logo": null,
  "aliases": []
 },
 {
  "canonical": "Padmaja Naidu Himalayan Zoological Park",
  "lineage_id": 208,
  "en": "Padmaja Naidu Himalayan Zoological Park",
  "zh": null,
  "country": "India",
  "location_ja": null,
  "location_en": "Darjeeling, West Bengal, India",
  "lat": 27.0559755,
  "lng": 88.2539962,
  "map": "https://goo.gl/maps/C9avzzkuLqMsUiui8",
  "website": "http://pnhzp.gov.in/",
  "logo": null,
  "aliases": []
 },
 {
  "canonical": "Paignton Zoo Environmental Park",
  "lineage_id": 139,
  "en": "Paignton Zoo Environmental Park",
  "zh": null,
  "country": "UK",
  "location_ja": null,
  "location_en": "Paignton, UK",
  "lat": 50.4326122,
  "lng": -3.5974683,
  "map": "https://goo.gl/maps/Jigbo16RLDP2",
  "website": "https://www.paigntonzoo.org.uk/",
  "logo": null,
  "aliases": []
 },
 {
  "canonical": "Pairi Daiza",
  "lineage_id": 219,
  "en": "Pairi Daiza",
  "zh": null,
  "country": "Belgium",
  "location_ja": null,
  "location_en": "Cambron, Brugelette, Belgium",
  "lat": 50.585112,
  "lng": 3.8820805,
  "map": "https://g.page/JardinDesMondes?share",
  "website": "https://www.pairidaiza.eu/en",
  "logo": null,
  "aliases": []
 },
 {
  "canonical": "Paradise Park and Jungle Barn",
  "lineage_id": 263,
  "en": "Paradise Park and Jungle Barn",
  "zh": null,
  "country": "UK",
  "location_ja": null,
  "location_en": "Hayle, Cornwall, United Kingdom",
  "lat": 50.1810773,
  "lng": -5.4346366,
  "map": "https://g.page/ParadiseParkCornwall?share",
  "website": "https://www.paradisepark.org.uk/",
  "logo": null,
  "aliases": []
 },
 {
  "canonical": "Parc Animalier d'Auvergne",
  "lineage_id": 277,
  "en": "Parc Animalier d'Auvergne",
  "zh": null,
  "country": "France",
  "location_ja": null,
  "location_en": "Ardes-sur-Couze, France",
  "lat": 45.393251,
  "lng": 3.1137653,
  "map": "https://goo.gl/maps/RHQiB2w89SeU695AA",
  "website": "http://www.parcanimalierdauvergne.fr/",
  "logo": null,
  "aliases": []
 },
 {
  "canonical": "Parc Animalier de Sainte-Croix",
  "lineage_id": 238,
  "en": "Parc Animalier de Sainte-Croix",
  "zh": null,
  "country": "France",
  "location_ja": null,
  "location_en": "Rhodes, France",
  "lat": 48.7722776,
  "lng": 6.8939855,
  "map": "https://goo.gl/maps/sUYh39hUVRgB3UYD9",
  "website": "https://parcsaintecroix.com/",
  "logo": null,
  "aliases": []
 },
 {
  "canonical": "Parc Animalier des Pyrénées",
  "lineage_id": 319,
  "en": "Parc Animalier des Pyrénées",
  "zh": null,
  "country": "france",
  "location_ja": null,
  "location_en": "Ayzac-Ost, France",
  "lat": 43.0147249,
  "lng": -0.1161557,
  "map": "https://maps.app.goo.gl/BEVRSUF2LwrWgDKo7",
  "website": "https://www.parc-animalier-pyrenees.com/",
  "logo": null,
  "aliases": []
 },
 {
  "canonical": "Parc Zoologique de Fort-Mardyck",
  "lineage_id": 285,
  "en": "Parc Zoologique de Fort-Mardyck",
  "zh": null,
  "country": "France",
  "location_ja": null,
  "location_en": "Dunkerque, France",
  "lat": 51.0304141,
  "lng": 2.3073733,
  "map": "https://g.page/zoo-fort-mardyck",
  "website": "https://www.parc-zoologique.fr/",
  "logo": null,
  "aliases": []
 },
 {
  "canonical": "Parco Zoo Punta Verde",
  "lineage_id": 314,
  "en": "Parco Zoo Punta Verde",
  "zh": null,
  "country": "Italy",
  "location_ja": null,
  "location_en": "Ligano Sabbiadoro, Italy",
  "lat": 45.659946,
  "lng": 13.0661159,
  "map": "https://goo.gl/maps/9buq6uDL25xoEPAG6",
  "website": "https://www.parcozoopuntaverde.it/",
  "logo": null,
  "aliases": []
 },
 {
  "canonical": "Peaugres Safari",
  "lineage_id": 176,
  "en": "Peaugres Safari",
  "zh": null,
  "country": "France",
  "location_ja": null,
  "location_en": "Peaugres, Ardeche, France",
  "lat": 45.2662271,
  "lng": 4.715139,
  "map": "https://goo.gl/maps/to47igrwiqs",
  "website": "https://www.safari-peaugres.com/",
  "logo": null,
  "aliases": []
 },
 {
  "canonical": "Philadelphia Zoo",
  "lineage_id": 81,
  "en": "Philadelphia Zoo",
  "zh": null,
  "country": "USA",
  "location_ja": null,
  "location_en": "Philadelphia, Pennsylvania, USA",
  "lat": 39.9734158,
  "lng": -75.2334743,
  "map": "https://goo.gl/maps/wE2icXwnpcN2",
  "website": "https://www.philadelphiazoo.org/",
  "logo": null,
  "aliases": []
 },
 {
  "canonical": "Potawatomi Zoo",
  "lineage_id": 104,
  "en": "Potawatomi Zoo",
  "zh": null,
  "country": "USA",
  "location_ja": null,
  "location_en": "South Bend, Indiana, USA",
  "lat": 41.6695218,
  "lng": -86.2270148,
  "map": "https://goo.gl/maps/Kn5Ao11FJ5Q2",
  "website": "https://www.potawatomizoo.org/",
  "logo": null,
  "aliases": []
 },
 {
  "canonical": "Potter Park Zoological Gardens",
  "lineage_id": 113,
  "en": "Potter Park Zoological Gardens",
  "zh": null,
  "country": "USA",
  "location_ja": null,
  "location_en": "Lansing, Michigan, USA",
  "lat": 42.71787,
  "lng": -84.5451808,
  "map": "https://goo.gl/maps/kqsiiZNsTK72",
  "website": "https://potterparkzoo.org/",
  "logo": null,
  "aliases": []
 },
 {
  "canonical": "Prospect Park Zoo",
  "lineage_id": 84,
  "en": "Prospect Park Zoo",
  "zh": null,
  "country": "USA",
  "location_ja": null,
  "location_en": "Brooklyn, NY, USA",
  "lat": 40.676838,
  "lng": -73.9870309,
  "map": "https://goo.gl/maps/7JRYsikRmTz",
  "website": "https://prospectparkzoo.com/",
  "logo": null,
  "aliases": []
 },
 {
  "canonical": "Pueblo Zoo",
  "lineage_id": 160,
  "en": "Pueblo Zoo",
  "zh": null,
  "country": "USA",
  "location_ja": null,
  "location_en": "Pueblo, Colorado, USA",
  "lat": 38.262699,
  "lng": -104.6614709,
  "map": "https://goo.gl/maps/sAm9JQGw7HG2",
  "website": "https://www.pueblozoo.org",
  "logo": null,
  "aliases": []
 },
 {
  "canonical": "Ree Park - Ebeltoft Safari",
  "lineage_id": 182,
  "en": "Ree Park - Ebeltoft Safari",
  "zh": null,
  "country": "Denmark",
  "location_ja": null,
  "location_en": "Ebeltoft, Region Midtjylland, Denmark",
  "lat": 56.2706695,
  "lng": 10.6830025,
  "map": "https://goo.gl/maps/4z1kJsgauGs",
  "website": "https://www.reepark.dk/",
  "logo": null,
  "aliases": []
 },
 {
  "canonical": "Reid Park Zoo",
  "lineage_id": 164,
  "en": "Reid Park Zoo",
  "zh": null,
  "country": "USA",
  "location_ja": null,
  "location_en": "Tucson, Arizona, USA",
  "lat": 32.2098547,
  "lng": -110.922933,
  "map": "https://goo.gl/maps/4ifa2Vic4k92",
  "website": "https://reidparkzoo.org",
  "logo": null,
  "aliases": []
 },
 {
  "canonical": "River Wonders",
  "lineage_id": 205,
  "en": "River Wonders",
  "zh": null,
  "country": "Singapore",
  "location_ja": null,
  "location_en": "Singapore",
  "lat": 1.4043485,
  "lng": 103.7908343,
  "map": "https://goo.gl/maps/YC9SowJPvw5XBHtY7",
  "website": "https://www.wrs.com.sg/en/singapore-zoo.html",
  "logo": null,
  "aliases": []
 },
 {
  "canonical": "Riverside Discovery Center",
  "lineage_id": 185,
  "en": "Riverside Discovery Center",
  "zh": null,
  "country": "USA",
  "location_ja": null,
  "location_en": "Scottsbluff, Nebraska, USA",
  "lat": 41.8611875,
  "lng": -103.6905899,
  "map": "https://goo.gl/maps/Qt4FF5wmb2k",
  "website": "http://riversidediscoverycenter.org/",
  "logo": null,
  "aliases": []
 },
 {
  "canonical": "Roger Williams Park Zoo",
  "lineage_id": 97,
  "en": "Roger Williams Park Zoo",
  "zh": null,
  "country": "USA",
  "location_ja": null,
  "location_en": "Providence, Rhode Island, USA",
  "lat": 41.7903783,
  "lng": -71.4235683,
  "map": "https://goo.gl/maps/5Nw7c3CJH4r",
  "website": "http://www.rwpzoo.org/",
  "logo": null,
  "aliases": []
 },
 {
  "canonical": "Roosevelt Park Zoo",
  "lineage_id": 212,
  "en": "Roosevelt Park Zoo",
  "zh": null,
  "country": "USA",
  "location_ja": null,
  "location_en": "Minot, North Dakota, USA",
  "lat": 48.2336684,
  "lng": -101.2785031,
  "map": "https://goo.gl/maps/mSz13fbcxkmQsY7m6",
  "website": "http://rpzoo.com/",
  "logo": null,
  "aliases": []
 },
 {
  "canonical": "Rosamond Gifford Zoo at Burnet Park",
  "lineage_id": 154,
  "en": "Rosamond Gifford Zoo at Burnet Park",
  "zh": null,
  "country": "USA",
  "location_ja": null,
  "location_en": "Syracuse, New York, USA",
  "lat": 43.0441161,
  "lng": -76.1914599,
  "map": "https://goo.gl/maps/ghur2zM8qwp",
  "website": "https://www.rosamondgiffordzoo.org/",
  "logo": null,
  "aliases": []
 },
 {
  "canonical": "Royal Melbourne Zoological Gardens",
  "lineage_id": 207,
  "en": "Royal Melbourne Zoological Gardens",
  "zh": null,
  "country": "Australia",
  "location_ja": null,
  "location_en": "Melbourne, Victoria, Australia",
  "lat": -37.7868024,
  "lng": 144.9420517,
  "map": "https://goo.gl/maps/aByBjDMrrJZusLEz6",
  "website": "https://www.zoo.org.au/melbourne",
  "logo": null,
  "aliases": []
 },
 {
  "canonical": "Sacramento Zoo",
  "lineage_id": 133,
  "en": "Sacramento Zoo",
  "zh": null,
  "country": "USA",
  "location_ja": null,
  "location_en": "Sacramento, California, USA",
  "lat": 38.5533686,
  "lng": -121.5146257,
  "map": "https://goo.gl/maps/GEYwh3eaDRF2",
  "website": "https://www.saczoo.org/",
  "logo": null,
  "aliases": []
 },
 {
  "canonical": "Safari Niagara",
  "lineage_id": null,
  "en": null,
  "zh": null,
  "country": null,
  "location_ja": null,
  "location_en": null,
  "lat": null,
  "lng": null,
  "map": null,
  "website": null,
  "logo": null,
  "aliases": []
 },
 {
  "canonical": "Safari Niagra",
  "lineage_id": 68,
  "en": "Safari Niagra",
  "zh": "尼加拉野生動物園",
  "country": "Canada",
  "location_ja": "安大略省FortErie",
  "location_en": "Fort Erie, Ontario, Canada",
  "lat": 42.9523118,
  "lng": -79.057585,
  "map": "https://goo.gl/maps/PkYjqGk5rX22",
  "website": "https://safariniagara.com/",
  "logo": null,
  "aliases": []
 },
 {
  "canonical": "Saint Louis Zoo",
  "lineage_id": 161,
  "en": "Saint Louis Zoo",
  "zh": null,
  "country": "USA",
  "location_ja": null,
  "location_en": "Saint Louis, Missouri, USA",
  "lat": 38.6381232,
  "lng": -90.3001847,
  "map": "https://goo.gl/maps/nLG8EFxE9v72",
  "website": "https://www.stlzoo.org",
  "logo": null,
  "aliases": []
 },
 {
  "canonical": "Salzburg Zoo Hellbrunn",
  "lineage_id": 272,
  "en": "Salzburg Zoo Hellbrunn",
  "zh": null,
  "country": "Austria",
  "location_ja": null,
  "location_en": "Salzburg, Austria",
  "lat": 47.7568245,
  "lng": 13.0641711,
  "map": "https://g.page/ZooSalzburgHellbrunn?share",
  "website": "https://www.salzburg-zoo.at/",
  "logo": null,
  "aliases": []
 },
 {
  "canonical": "San Francisco Zoo",
  "lineage_id": 180,
  "en": "San Francisco Zoo",
  "zh": null,
  "country": "USA",
  "location_ja": null,
  "location_en": "San Francisco, California, USA",
  "lat": 37.7332206,
  "lng": -122.5075049,
  "map": "https://goo.gl/maps/H7Dy1JJ2Mtt",
  "website": "http://www.sfzoo.org/",
  "logo": null,
  "aliases": []
 },
 {
  "canonical": "Santa Barbara Zoo",
  "lineage_id": 237,
  "en": "Santa Barbara Zoo",
  "zh": null,
  "country": "USA",
  "location_ja": null,
  "location_en": "Santa Barbara, California, USA",
  "lat": 34.420408,
  "lng": -119.6707314,
  "map": "https://g.page/santa-barbara-zoo-santa-barbara",
  "website": "https://www.sbzoo.org/",
  "logo": null,
  "aliases": []
 },
 {
  "canonical": "Saskatoon Forestry Farm Park & Zoo",
  "lineage_id": 106,
  "en": "Saskatoon Forestry Farm Park & Zoo",
  "zh": null,
  "country": "Canada",
  "location_ja": null,
  "location_en": "Saskatoon, Saskatchewan, Canada",
  "lat": 52.1584862,
  "lng": -106.6062401,
  "map": "https://goo.gl/maps/1YnG95vKmtj",
  "website": "https://www.saskatoon.ca/parks-recreation-attractions/events-attractions/saskatoon-forestry-farm-park-zoo",
  "logo": null,
  "aliases": []
 },
 {
  "canonical": "Schwerin Zoo",
  "lineage_id": 248,
  "en": "Schwerin Zoo",
  "zh": null,
  "country": "Germany",
  "location_ja": null,
  "location_en": "Schwerin, Germany",
  "lat": 53.6058013,
  "lng": 11.437349,
  "map": "https://goo.gl/maps/bnXANJXY5T2kfmJ87",
  "website": "https://www.zoo-schwerin.de/",
  "logo": null,
  "aliases": []
 },
 {
  "canonical": "Scovill Zoo",
  "lineage_id": 177,
  "en": "Scovill Zoo",
  "zh": null,
  "country": "USA",
  "location_ja": null,
  "location_en": "Decatur, Illinois, USA",
  "lat": 39.8256011,
  "lng": -88.9228137,
  "map": "https://goo.gl/maps/bNjR8G7oPwx",
  "website": "https://www.decatur-parks.org/scovill-zoo/",
  "logo": null,
  "aliases": []
 },
 {
  "canonical": "Sedgwick County Zoo",
  "lineage_id": 179,
  "en": "Sedgwick County Zoo",
  "zh": null,
  "country": "USA",
  "location_ja": null,
  "location_en": "Wichita, Kansas, USA",
  "lat": 37.7170341,
  "lng": -97.4173157,
  "map": "https://goo.gl/maps/Po7n3tMmfBx",
  "website": "https://scz.org",
  "logo": null,
  "aliases": []
 },
 {
  "canonical": "Selwo Aventura",
  "lineage_id": 288,
  "en": "Selwo Aventura",
  "zh": null,
  "country": "Spain",
  "location_ja": null,
  "location_en": "Estepona, Málaga, Spain",
  "lat": 36.4584657,
  "lng": -5.0892368,
  "map": "https://goo.gl/maps/zRaPJtmd3SzYr22cA",
  "website": "https://www.selwo.es/",
  "logo": null,
  "aliases": []
 },
 {
  "canonical": "Seneca Park Zoo",
  "lineage_id": 127,
  "en": "Seneca Park Zoo",
  "zh": null,
  "country": "USA",
  "location_ja": null,
  "location_en": "Rochester, New York, USA",
  "lat": 43.2050765,
  "lng": -77.6413961,
  "map": "https://goo.gl/maps/KcEFhVkJNT62",
  "website": "https://senecaparkzoo.org/",
  "logo": null,
  "aliases": []
 },
 {
  "canonical": "Sequoia Park Zoo",
  "lineage_id": 134,
  "en": "Sequoia Park Zoo",
  "zh": null,
  "country": "USA",
  "location_ja": null,
  "location_en": "Eureka, California, USA",
  "lat": 40.7776108,
  "lng": -124.184071,
  "map": "https://goo.gl/maps/ryf6GPWAwL12",
  "website": "http://www.sequoiaparkzoo.net/",
  "logo": null,
  "aliases": []
 },
 {
  "canonical": "Shepreth Wildlife Park",
  "lineage_id": 232,
  "en": "Shepreth Wildlife Park",
  "zh": null,
  "country": "UK",
  "location_ja": null,
  "location_en": "Shepreth, Royston, UK",
  "lat": 52.1142951,
  "lng": 0.0324387,
  "map": "https://goo.gl/maps/SsrHBtgsXj5LxW4U7",
  "website": "https://sheprethwildlifepark.co.uk/",
  "logo": null,
  "aliases": []
 },
 {
  "canonical": "Smithsonian Conservation Biology Institute",
  "lineage_id": 114,
  "en": "Smithsonian Conservation Biology Institute",
  "zh": null,
  "country": "USA",
  "location_ja": null,
  "location_en": "Front Royal, Virginia, USA",
  "lat": 38.919911,
  "lng": -78.1745857,
  "map": "https://goo.gl/maps/nwP7UfETU292",
  "website": "https://nationalzoo.si.edu/conservation",
  "logo": null,
  "aliases": []
 },
 {
  "canonical": "Sri Ayutthaya Lion Park",
  "lineage_id": null,
  "en": "Sri Ayutthaya Lion Park",
  "zh": "大城獅子公園",
  "country": "Thailand",
  "location_ja": null,
  "location_en": "Tha Ruea, Phra Nakhon Si Ayutthaya, Thailand",
  "lat": null,
  "lng": null,
  "map": "https://maps.app.goo.gl/xEbDWA6yr9Ej33cg8",
  "website": "https://www.sriayuthayalionpark.com/",
  "logo": null,
  "aliases": [
   "Sriayuthaya Lion Park",
   "ศรีอยุธยา ไลอ้อน พาร์ค"
  ]
 },
 {
  "canonical": "Staten Island Zoo",
  "lineage_id": 103,
  "en": "Staten Island Zoo",
  "zh": null,
  "country": "USA",
  "location_ja": null,
  "location_en": "Staten Island, NY, USA",
  "lat": 40.6233661,
  "lng": -74.1232649,
  "map": "https://goo.gl/maps/1C5zcVNgMV72",
  "website": "http://www.statenislandzoo.org/",
  "logo": null,
  "aliases": []
 },
 {
  "canonical": "Sunset Zoo",
  "lineage_id": 144,
  "en": "Sunset Zoo",
  "zh": null,
  "country": "USA",
  "location_ja": null,
  "location_en": "Manhattan, Kansas, USA",
  "lat": 39.1846213,
  "lng": -96.5902839,
  "map": "https://goo.gl/maps/Sj3RgvkaU2y",
  "website": "http://www.sunsetzoo.com/",
  "logo": null,
  "aliases": []
 },
 {
  "canonical": "Symbio Wildlife Park",
  "lineage_id": 209,
  "en": "Symbio Wildlife Park",
  "zh": null,
  "country": "Australia",
  "location_ja": null,
  "location_en": "Helensburgh, New South Wales, Australia",
  "lat": -34.2049732,
  "lng": 150.9669419,
  "map": "https://goo.gl/maps/ofRF9aQb1d4BYUDq7",
  "website": "https://symbiozoo.com.au/",
  "logo": null,
  "aliases": []
 },
 {
  "canonical": "Szeged Zoo",
  "lineage_id": 183,
  "en": "Szeged Zoo",
  "zh": null,
  "country": "Hungary",
  "location_ja": null,
  "location_en": "Szeged, Hungary",
  "lat": 46.251715,
  "lng": 20.1095553,
  "map": "https://goo.gl/maps/C9wF2wMo39A2",
  "website": "http://zooszeged.hu/",
  "logo": null,
  "aliases": []
 },
 {
  "canonical": "Taronga Zoo Sydney",
  "lineage_id": 181,
  "en": "Taronga Zoo Sydney",
  "zh": null,
  "country": "Australia",
  "location_ja": null,
  "location_en": "Sydney, New South Wales, Australia",
  "lat": -33.8399865,
  "lng": 151.2260459,
  "map": "https://goo.gl/maps/G2VL3pjjP4s",
  "website": "https://taronga.org.au/sydney-zoo",
  "logo": null,
  "aliases": []
 },
 {
  "canonical": "Tasmania Zoo",
  "lineage_id": 206,
  "en": "Tasmania Zoo",
  "zh": null,
  "country": "Australia",
  "location_ja": null,
  "location_en": "Riverside, Tasmania, Australia",
  "lat": -41.4300651,
  "lng": 146.9745986,
  "map": "https://goo.gl/maps/nGVHHp5mSbbMjXJq6",
  "website": "https://www.tasmaniazoo.com.au/",
  "logo": null,
  "aliases": []
 },
 {
  "canonical": "Thoiry ZooSafari",
  "lineage_id": 305,
  "en": "Thoiry ZooSafari",
  "zh": null,
  "country": "France",
  "location_ja": null,
  "location_en": "Thoiry, Yvelines, France",
  "lat": 48.8639799,
  "lng": 1.7968256,
  "map": "https://goo.gl/maps/sydjYJBwdMMA5nRQA",
  "website": "https://www.thoiry.net/",
  "logo": null,
  "aliases": []
 },
 {
  "canonical": "Thrigby Hall Wildlife Gardens",
  "lineage_id": 175,
  "en": "Thrigby Hall Wildlife Gardens",
  "zh": null,
  "country": "UK",
  "location_ja": null,
  "location_en": "Great Yarmouth, Norfolk, UK",
  "lat": 52.652519,
  "lng": 1.6317406,
  "map": "https://goo.gl/maps/EWoai8Xtp682",
  "website": "https://www.thrigbyhall.com/",
  "logo": null,
  "aliases": []
 },
 {
  "canonical": "Tierpark Berlin",
  "lineage_id": 251,
  "en": "Tierpark Berlin",
  "zh": null,
  "country": "Germany",
  "location_ja": null,
  "location_en": "Berlin, Germany",
  "lat": 52.502307,
  "lng": 13.5226012,
  "map": "https://goo.gl/maps/qRRDZXnkQJiXarRN9",
  "website": "https://www.tierpark-berlin.de/",
  "logo": null,
  "aliases": []
 },